,city,state,zip,region,gradeWalking,avgDaysOfEnjoyableWeather,avgInternetSpeed,avgPopulationDensity,percentDemocrat,percentGraduates,percentIndependent,percentNonReligious,percentReligious,percentRepublican,percentSingle,avgHomePrice,avgCostOfLiving,gradeAirQuality,gradeLowTraffic,gradeSafety,lat,lon,pizzaPlaceTotal,pizzaRatingAvg,group
0,Honolulu,HI,96817,West,0.6045977011494253,0.5766871165644173,0.22448979591836737,0.059698658746626526,0.7108433734939759,0.3561643835616438,0.2,0.8815789473684211,0.11842105263157898,0.2926829268292683,0.37777777777777777,0.21992372587541895,0.7726830533757053,1.0,0.411764705882353,0.4705882352941176,21.3069444,-157.8583333,103,3.89,0
1,Homestead,FL,33033,South,0.28735632183908044,0.294478527607362,0.163265306122449,0.005370438178933236,0.6265060240963856,0.16438356164383564,0.2,0.7894736842105263,0.21052631578947373,0.39024390243902435,0.5777777777777777,0.08239916791864094,0.24161748492120105,0.8823529411764706,0.0,0.0,25.468722399999997,-80.4775569,101,3.99,0
2,Miami,FL,33186,South,0.7540229885057471,0.3067484662576687,0.14285714285714285,0.04704558091595807,0.6265060240963856,0.2465753424657534,0.2,0.7894736842105263,0.21052631578947373,0.39024390243902435,0.6888888888888889,0.11360221888362418,0.24161748492120105,0.8823529411764706,0.1764705882352941,0.0,25.7616798,-80.1917902,127,4.28,0
3,Miami Beach,FL,33139,South,0.7011494252873564,0.3067484662576687,0.11564625850340136,0.14639868722622293,0.6265060240963856,0.5890410958904109,0.2,0.7894736842105263,0.21052631578947373,0.39024390243902435,0.5999999999999999,0.18224893100658732,0.24161748492120105,0.8823529411764706,0.29411764705882354,0.0,25.790654,-80.1300455,137,4.16,1
4,Hialeah,FL,33012,South,0.6344827586206897,0.3067484662576687,0.12244897959183675,0.09448445149653499,0.6265060240963856,0.136986301369863,0.2,0.7894736842105263,0.21052631578947373,0.39024390243902435,0.5333333333333332,0.09280018490696869,0.24161748492120105,0.8823529411764706,0.29411764705882354,0.5294117647058822,25.8575963,-80.2781057,155,4.28,0
5,Brownsville,TX,78521,South,0.3793103448275862,0.26380368098159507,0.0272108843537415,0.015039939243527674,0.6746987951807228,0.1780821917808219,0.2,0.618421052631579,0.3815789473684211,0.32926829268292684,0.37777777777777777,0.02530914133826418,0.017056877877942744,0.23529411764705882,0.7647058823529411,0.29411764705882354,25.9017472,-97.4974838,84,4.01,2
6,Miramar,FL,33025,South,0.20689655172413793,0.294478527607362,0.10884353741496598,0.05556233641184209,0.6867469879518071,0.3013698630136986,0.2,0.7105263157894738,0.2894736842105264,0.3170731707317073,0.5111111111111113,0.11360221888362418,0.2307218366949867,0.8823529411764706,0.0,0.6470588235294117,25.9860762,-80.30356019999998,163,4.23,0
7,Pembroke Pines,FL,33028,South,0.2298850574712644,0.3067484662576687,0.11564625850340136,0.0627364823629928,0.6867469879518071,0.3972602739726028,0.2,0.7105263157894738,0.2894736842105264,0.3170731707317073,0.33333333333333326,0.11105974806425517,0.2375316168363707,0.8823529411764706,0.0,0.6470588235294117,26.007765,-80.2962555,154,4.24,0
8,Hollywood,FL,33024,South,0.45977011494252873,0.294478527607362,0.14965986394557823,0.0665880087337429,0.6867469879518071,0.2876712328767123,0.2,0.7105263157894738,0.2894736842105264,0.3170731707317073,0.5555555555555554,0.09765399283485497,0.4074842726506258,0.8823529411764706,0.0,0.23529411764705882,26.0112014,-80.1494901,160,4.27,0
9,Fort Lauderdale,FL,33311,South,0.5057471264367817,0.294478527607362,0.14285714285714285,0.04747955571829611,0.6867469879518071,0.3972602739726028,0.2,0.7105263157894738,0.2894736842105264,0.3170731707317073,0.6666666666666667,0.11221541661851381,0.2573124067708671,0.8823529411764706,0.411764705882353,0.0,26.122438600000002,-80.13731740000001,150,4.27,0
10,Naples,FL,34116,South,0.27586206896551724,0.4723926380368098,0.19727891156462585,0.006346881484193824,0.30120481927710835,0.6027397260273972,0.2,0.8289473684210527,0.17105263157894735,0.7195121951219513,0.11111111111111105,0.1313995146192072,0.09828782670730918,0.6470588235294117,1.0,0.5294117647058822,26.142035800000002,-81.7948103,113,4.17,1
11,Mcallen,TX,78501,South,0.4482758620689655,0.25766871165644173,0.04761904761904763,0.035491001803707775,0.7228915662650601,0.273972602739726,0.2,0.6578947368421053,0.34210526315789475,0.28048780487804875,0.33333333333333326,0.044724373049809314,0.0,0.0,0.6470588235294117,0.411764705882353,26.203407100000003,-98.2300124,105,4.09,2
12,Mission,TX,78572,South,0.32183908045977017,0.25766871165644173,0.0272108843537415,0.013073490920433433,0.7228915662650601,0.3013698630136986,0.2,0.6578947368421053,0.34210526315789475,0.28048780487804875,0.19999999999999996,0.044262105628105855,0.0,0.0,0.5294117647058822,0.4705882352941176,26.2159066,-98.3252932,100,4.04,2
13,Pompano Beach,FL,33064,South,0.3908045977011495,0.294478527607362,0.12925170068027209,0.05975290559691879,0.6867469879518071,0.2465753424657534,0.2,0.7105263157894738,0.2894736842105264,0.3170731707317073,0.6222222222222222,0.06367733733965099,0.1337635384914715,0.8823529411764706,0.29411764705882354,0.0,26.2378597,-80.1247667,138,4.32,2
14,Coral Springs,FL,33075,South,0.29885057471264365,0.2822085889570552,0.11564625850340136,0.06878500617057923,0.6867469879518071,0.4520547945205479,0.2,0.7105263157894738,0.2894736842105264,0.3170731707317073,0.3999999999999999,0.13440425286027968,0.2375316168363707,0.8823529411764706,0.1764705882352941,0.7058823529411764,26.271192,-80.27060440000001,158,4.23,1
15,Edinburg,TX,78542,South,0.20689655172413793,0.2331288343558282,0.0272108843537415,0.0036887858198733333,0.7228915662650601,0.31506849315068497,0.2,0.6578947368421053,0.34210526315789475,0.28048780487804875,0.3999999999999999,0.049809314688547324,0.0,0.0,0.411764705882353,0.1764705882352941,26.3017374,-98.1633432,97,4.1,2
16,Boca Raton,FL,33433,South,0.29885057471264365,0.294478527607362,0.14285714285714285,0.042014185551351425,0.5783132530120481,0.6301369863013699,0.2,0.5789473684210527,0.4210526315789474,0.42682926829268286,0.4222222222222223,0.13671558996879696,0.1283157143783643,0.8823529411764706,0.9411764705882353,0.6470588235294117,26.3683064,-80.1289321,145,4.27,1
17,Delray Beach,FL,33445,South,0.29885057471264365,0.294478527607362,0.17687074829931976,0.032575233600499076,0.5783132530120481,0.41095890410958896,0.2,0.5789473684210527,0.4210526315789474,0.42682926829268286,0.5777777777777777,0.07014908124349938,0.1337635384914715,0.8823529411764706,0.5294117647058822,0.0,26.4614625,-80.07282009999999,136,4.26,2
18,Boynton Beach,FL,33436,South,0.26436781609195403,0.294478527607362,0.17006802721088438,0.037891424929140056,0.5783132530120481,0.2876712328767123,0.2,0.5789473684210527,0.4210526315789474,0.42682926829268286,0.5777777777777777,0.09511152201548596,0.1337635384914715,0.1764705882352941,0.29411764705882354,0.23529411764705882,26.531786600000004,-80.0905465,138,4.26,2
19,Cape Coral,FL,33914,South,0.057471264367816105,0.4539877300613497,0.12244897959183675,0.01554172260873103,0.3734939759036144,0.1917808219178082,0.2,0.8157894736842106,0.18421052631578944,0.6341463414634146,0.3111111111111111,0.08424823760545476,0.10101173876386271,0.8823529411764706,0.0,0.7058823529411764,26.5628537,-81.94953309999998,117,4.15,2
20,Lake Worth,FL,33463,South,0.5057471264367817,0.31288343558282206,0.13605442176870747,0.042543092341700915,0.5783132530120481,0.2054794520547945,0.2,0.5921052631578948,0.40789473684210537,0.42682926829268286,0.7111111111111112,0.09048884779845141,0.18019975355081386,0.8823529411764706,0.0,0.0,26.6167555,-80.06844790000001,118,4.23,2
21,Fort Myers,FL,33908,South,0.29885057471264365,0.4110429447852761,0.14285714285714285,0.011988553914588335,0.3734939759036144,0.2602739726027397,0.2,0.8157894736842106,0.18421052631578944,0.6341463414634146,0.5777777777777777,0.08425054894256327,0.2573124067708671,0.8823529411764706,0.23529411764705882,0.29411764705882354,26.640628000000003,-81.87230840000001,117,4.05,2
22,West Palm Beach,FL,33411,South,0.32183908045977017,0.3312883435582822,0.17687074829931976,0.028900009493198806,0.5783132530120481,0.3698630136986301,0.2,0.5789473684210527,0.4210526315789474,0.42682926829268286,0.6888888888888889,0.0803189645209754,0.1283157143783643,0.8823529411764706,0.4705882352941176,0.1764705882352941,26.7153424,-80.0533746,128,4.21,2
23,Port Saint Lucie,FL,34953,South,0.03448275862068964,0.3374233128834356,0.17006802721088438,0.012476775567218629,0.5301204819277108,0.2602739726027397,0.2,0.8026315789473685,0.19736842105263158,0.48780487804878053,0.288888888888889,0.07523402288223738,0.08735975095661197,0.7058823529411764,0.0,0.7647058823529411,27.273049199999996,-80.3582261,102,4.25,2
24,Sarasota,FL,34232,South,0.4482758620689655,0.5030674846625768,0.17006802721088438,0.013927878812536447,0.43373493975903615,0.3561643835616438,0.2,0.6973684210526316,0.3026315789473684,0.5731707317073171,0.6222222222222222,0.10435687044955508,0.18019975355081386,0.6470588235294117,0.7647058823529411,0.0,27.3364347,-82.53065269999998,116,4.15,2
25,Fort Pierce,FL,34982,South,0.28735632183908044,0.3374233128834356,0.13605442176870747,0.003376866430692868,0.5301204819277108,0.136986301369863,0.0,0.8026315789473685,0.19736842105263158,0.48780487804878053,0.5555555555555554,0.052559805847682876,0.2573124067708671,0.8823529411764706,0.5294117647058822,0.0,27.446705600000005,-80.3256056,115,4.18,0
26,Bradenton,FL,34203,South,0.29885057471264365,0.5030674846625768,0.19727891156462585,0.01928475527889662,0.397590361445783,0.2328767123287671,0.2,0.8421052631578948,0.15789473684210525,0.6097560975609757,0.5111111111111113,0.08840864440078586,0.09828782670730918,0.6470588235294117,0.6470588235294117,0.29411764705882354,27.4989278,-82.5748194,119,4.13,2
27,Laredo,TX,78046,South,0.3885057471264368,0.21472392638036808,0.04081632653061225,0.0022105591494093876,0.8072289156626504,0.16438356164383564,0.2,0.34210526315789475,0.6578947368421053,0.20731707317073172,0.3555555555555556,0.04657344273662314,0.04640378753485952,0.0,0.6470588235294117,0.29411764705882354,27.5035613,-99.50755190000001,80,4.04,2
28,Vero Beach,FL,32962,South,0.735632183908046,0.3558282208588957,0.1564625850340136,0.0033497430055467407,0.34939759036144574,0.3698630136986301,0.2,0.6447368421052632,0.3552631578947369,0.6707317073170732,0.5111111111111113,0.06922454640009246,0.16174849212011155,0.8823529411764706,0.9411764705882353,0.4705882352941176,27.6386434,-80.39727359999998,94,4.17,2
29,Saint Petersburg,FL,33710,South,0.3505747126436781,0.46625766871165647,0.20408163265306123,0.05449096111857006,0.506024096385542,0.3287671232876712,0.2,0.855263157894737,0.1447368421052631,0.49999999999999994,0.5777777777777777,0.06552640702646481,0.10509760684869318,0.6470588235294117,0.5294117647058822,0.0,27.767600800000004,-82.64029149999998,129,4.15,2
30,Corpus Christi,TX,78415,South,0.2954022988505748,0.4723926380368098,0.14965986394557823,0.015446790620719584,0.4578313253012048,0.2054794520547945,0.2,0.5789473684210527,0.4210526315789474,0.5487804878048781,0.4444444444444444,0.04888477984514041,0.12218691225111877,0.23529411764705882,0.7058823529411764,0.1764705882352941,27.800582799999997,-97.396381,79,3.84,2
31,Largo,FL,33771,South,0.367816091954023,0.46625766871165647,0.20408163265306123,0.05755590816008246,0.506024096385542,0.1917808219178082,0.2,0.855263157894737,0.1447368421052631,0.49999999999999994,0.5111111111111113,0.06064948572749335,0.1283157143783643,0.6470588235294117,0.4705882352941176,0.411764705882353,27.909466499999997,-82.7873244,122,4.24,2
32,Tampa,FL,33647,South,0.4172413793103448,0.38036809815950917,0.163265306122449,0.03900348536013128,0.5180722891566265,0.3972602739726028,0.2,0.7631578947368421,0.2368421052631579,0.48780487804878053,0.6444444444444444,0.08355483647289957,0.10509760684869318,0.6470588235294117,0.5294117647058822,0.5294117647058822,27.950575,-82.4571776,134,4.15,2
33,Clearwater,FL,33756,South,0.3563218390804598,0.46625766871165647,0.18367346938775514,0.046489550700462456,0.506024096385542,0.3561643835616438,0.2,0.855263157894737,0.1447368421052631,0.49999999999999994,0.5333333333333332,0.06621980815902,0.10509760684869318,0.6470588235294117,0.4705882352941176,0.29411764705882354,27.9658533,-82.8001026,127,4.24,2
34,Winter Haven,FL,33880,South,0.17241379310344826,0.4171779141104294,0.20408163265306123,0.015161994656685248,0.43373493975903615,0.1780821917808219,0.2,0.7631578947368421,0.2368421052631579,0.5731707317073171,0.5111111111111113,0.05581879117069224,0.060055775342110373,0.6470588235294117,0.29411764705882354,0.23529411764705882,28.0222435,-81.7328567,122,4.01,2
35,Palm Bay,FL,32907,South,0.0,0.4110429447852761,0.19047619047619047,0.015528160896157968,0.397590361445783,0.2054794520547945,0.2,0.8026315789473685,0.19736842105263158,0.6097560975609757,0.4444444444444444,0.05443198890558188,0.1283157143783643,0.9411764705882353,0.23529411764705882,0.7058823529411764,28.034462100000006,-80.5886646,91,4.17,2
36,Lakeland,FL,33810,South,0.26436781609195403,0.4171779141104294,0.18367346938775514,0.011852936788857698,0.43373493975903615,0.2876712328767123,0.2,0.7631578947368421,0.2368421052631579,0.5731707317073171,0.5555555555555554,0.06594244770599793,0.4498346196251378,0.6470588235294117,0.8823529411764706,0.0,28.039465399999997,-81.9498042,91,4.01,0
37,Melbourne,FL,32935,South,0.18390804597701146,0.4110429447852761,0.163265306122449,0.009276211399975589,0.397590361445783,0.2602739726027397,0.2,0.8026315789473685,0.19736842105263158,0.6097560975609757,0.5333333333333332,0.05581879117069224,0.08054997081522797,0.9411764705882353,0.7058823529411764,0.1764705882352941,28.0836269,-80.60810889999998,100,4.2,2
38,New Port Richey,FL,34655,South,0.5287356321839081,0.38036809815950917,0.19727891156462585,0.01654528933913775,0.43373493975903615,0.0821917808219178,0.2,0.9078947368421053,0.09210526315789475,0.5731707317073171,0.5777777777777777,0.04749797758003004,0.10101173876386271,0.6470588235294117,0.29411764705882354,0.1764705882352941,28.244176799999998,-82.7192671,124,4.18,2
39,Kissimmee,FL,34744,South,0.19540229885057472,0.3865030674846626,0.1564625850340136,0.012232664740903482,0.6265060240963856,0.136986301369863,0.2,0.9342105263157895,0.06578947368421051,0.3780487804878049,0.5777777777777777,0.06691320929157518,0.14401063622803034,0.8823529411764706,0.1764705882352941,0.1764705882352941,28.291955699999995,-81.40757099999998,145,4.12,2
40,Orlando,FL,32828,South,0.33678160919540223,0.4417177914110429,0.13605442176870747,0.025048483122448707,0.5903614457831323,0.3835616438356164,0.2,0.7894736842105263,0.21052631578947373,0.4146341463414634,0.6888888888888889,0.0812434993643823,0.14401063622803034,0.8823529411764706,0.29411764705882354,0.0,28.5383355,-81.3792365,147,4.22,2
41,Ocala,FL,34472,South,0.18390804597701146,0.36809815950920244,0.12244897959183675,0.006780856286531863,0.3734939759036144,0.2602739726027397,0.2,0.8684210526315791,0.13157894736842107,0.6341463414634146,0.5555555555555554,0.0437998382064024,0.10853492444386792,0.6470588235294117,0.7647058823529411,0.0,29.187198600000002,-82.14009229999998,94,4.16,2
42,Daytona Beach,FL,32114,South,0.26436781609195403,0.43558282208588955,0.17006802721088438,0.01554172260873103,0.46987951807228906,0.2054794520547945,0.2,0.8289473684210527,0.17105263157894735,0.5365853658536586,0.7999999999999998,0.04913347971801687,0.1337635384914715,0.8823529411764706,0.7647058823529411,0.0,29.2108147,-81.02283309999999,95,4.01,2
43,San Antonio,TX,78228,South,0.27241379310344827,0.22085889570552147,0.3197278911564626,0.02393642269145748,0.506024096385542,0.2602739726027397,0.2,0.4605263157894737,0.5394736842105263,0.49999999999999994,0.5111111111111113,0.0765745984051774,0.07030287307866911,0.29411764705882354,0.4705882352941176,0.0,29.4241219,-98.4936282,150,4.08,2
44,Pearland,TX,77584,South,0.06896551724137931,0.2883435582822086,0.1564625850340136,0.02616054355343993,0.2650602409638554,0.4794520547945205,0.2,0.618421052631579,0.3815789473684211,0.7317073170731708,0.06666666666666665,0.10505027158211025,0.10305467280627789,0.23529411764705882,0.0,0.7058823529411764,29.5635666,-95.2860474,166,4.09,2
45,Richmond,TX,77469,South,0.574712643678161,0.2883435582822086,0.19047619047619047,0.005940030107001912,0.43373493975903615,0.0958904109589041,0.2,0.7105263157894738,0.2894736842105264,0.5731707317073171,0.4666666666666668,0.10893331792441928,0.11874959465594392,0.23529411764705882,0.23529411764705882,0.7058823529411764,29.5821811,-95.7607832,123,4.15,2
46,Sugar Land,TX,77479,South,0.16091954022988506,0.2883435582822086,0.19047619047619047,0.0344331882230088,0.43373493975903615,0.6301369863013699,0.2,0.7105263157894738,0.2894736842105264,0.5731707317073171,0.022222222222222254,0.1288570437998382,0.10305467280627789,0.23529411764705882,0.0,0.7058823529411764,29.5984434,-95.6225521,163,4.07,1
47,Missouri City,TX,77459,South,0.13793103448275865,0.2883435582822086,0.20408163265306123,0.02808630673881498,0.43373493975903615,0.5342465753424657,0.2,0.7105263157894738,0.2894736842105264,0.5731707317073171,0.2222222222222222,0.10054316422050157,0.10785394642972956,0.23529411764705882,0.0,0.7647058823529411,29.6185669,-95.5377215,162,4.13,1
48,Gainesville,FL,32608,South,0.26436781609195403,0.3374233128834356,0.14965986394557823,0.009140594274244952,0.5783132530120481,0.5205479452054793,0.4,0.8684210526315791,0.13157894736842107,0.42682926829268286,0.9777777777777779,0.06321506991794754,0.13103962643491796,0.9411764705882353,1.0,0.29411764705882354,29.6516344,-82.32482619999998,76,4.1,1
49,Pasadena,TX,77502,South,0.3793103448275862,0.2883435582822086,0.19727891156462585,0.03787786321656699,0.46987951807228906,0.136986301369863,0.2,0.6578947368421053,0.34210526315789475,0.524390243902439,0.4222222222222223,0.05859239570091298,0.09420195862247871,0.23529411764705882,0.1764705882352941,0.411764705882353,29.6910625,-95.2091006,158,4.09,2
50,Baytown,TX,77521,South,0.21839080459770113,0.2883435582822086,0.14285714285714285,0.008760866322199167,0.46987951807228906,0.1095890410958904,0.2,0.6578947368421053,0.34210526315789475,0.524390243902439,0.3999999999999999,0.068762278978389,0.09624489266489389,0.1764705882352941,0.5294117647058822,0.1764705882352941,29.735504700000003,-94.9774274,129,3.95,2
51,Houston,TX,77084,South,0.3931034482758621,0.37423312883435583,0.14965986394557823,0.04730325345484628,0.46987951807228906,0.3424657534246575,0.2,0.6578947368421053,0.34210526315789475,0.524390243902439,0.5333333333333332,0.08586617358141685,0.14196770218561516,0.1764705882352941,0.23529411764705882,0.0,29.7604267,-95.36980279999999,133,4.23,2
52,Katy,TX,77449,South,0.6206896551724138,0.2883435582822086,0.24489795918367346,0.022648059997016426,0.46987951807228906,0.2876712328767123,0.2,0.6578947368421053,0.34210526315789475,0.524390243902439,0.19999999999999996,0.1056049924881544,0.10101173876386271,0.23529411764705882,0.1764705882352941,0.4705882352941176,29.7857765,-95.8245093,137,4.08,2
53,Saint Augustine,FL,32084,South,0.9310344827586207,0.4539877300613497,0.17006802721088438,0.004665229125133922,0.25301204819277107,0.4246575342465753,0.2,0.8157894736842106,0.18421052631578944,0.7560975609756099,0.6888888888888889,0.09280018490696869,0.09420195862247871,0.9411764705882353,1.0,0.0,29.9012437,-81.31243409999998,93,4.28,2
54,New Orleans,LA,70119,South,0.532183908045977,0.38036809815950917,0.1564625850340136,0.028466034690860766,0.8433734939759037,0.3972602739726028,0.4,0.736842105263158,0.2631578947368421,0.14634146341463417,0.7777777777777779,0.09927192881081706,0.10785394642972956,0.411764705882353,0.4705882352941176,0.29411764705882354,29.95106579999999,-90.0715323,96,4.12,1
55,Metairie,LA,70003,South,0.48275862068965514,0.3312883435582822,0.13605442176870747,0.08055657268399855,0.3614457831325301,0.3698630136986301,0.4,0.618421052631579,0.3815789473684211,0.6341463414634146,0.5111111111111113,0.09326245232867214,0.10785394642972956,0.4705882352941176,0.7058823529411764,1.0,29.984092200000003,-90.1528519,107,4.04,2
56,Humble,TX,77346,South,0.7586206896551725,0.2883435582822086,0.217687074829932,0.02488574257157194,0.46987951807228906,0.1780821917808219,0.2,0.6578947368421053,0.34210526315789475,0.524390243902439,0.6222222222222222,0.07789206055703225,0.10785394642972956,0.1764705882352941,0.4705882352941176,0.0,29.99883119999999,-95.2621553,148,3.87,2
57,Spring,TX,77379,South,0.06896551724137931,0.24539877300613494,0.17006802721088438,0.026486024655193462,0.46987951807228906,0.2054794520547945,0.4,0.6578947368421053,0.34210526315789475,0.524390243902439,0.288888888888889,0.09742285912400324,0.09896880472144753,0.1764705882352941,0.0,0.0,30.079940500000003,-95.4171601,142,4.01,2
58,Beaumont,TX,77705,South,0.2413793103448276,0.4417177914110429,0.054421768707482984,0.004719475975426177,0.48192771084337344,0.2602739726027397,0.2,0.4605263157894737,0.5394736842105263,0.524390243902439,0.5999999999999999,0.04703571015832659,0.1522147999221739,0.6470588235294117,0.9411764705882353,0.0,30.080174,-94.12655620000001,91,4.0,2
59,Panama City,FL,32404,South,0.25287356321839083,0.3987730061349693,0.14965986394557823,0.005316191328640981,0.21686746987951805,0.2465753424657534,0.2,0.7763157894736842,0.22368421052631576,0.7926829268292683,0.5777777777777777,0.06506413960476136,0.07370776314936112,0.6470588235294117,0.6470588235294117,0.0,30.158812899999997,-85.6602058,104,3.98,2
60,Lafayette,LA,70506,South,0.33333333333333337,0.3496932515337423,0.163265306122449,0.02157668470374439,0.2650602409638554,0.3698630136986301,0.4,0.27631578947368424,0.7236842105263157,0.7317073170731708,0.6222222222222222,0.09696059170229979,0.10577858486283154,0.23529411764705882,0.7647058823529411,0.0,30.2240897,-92.0198427,78,4.03,2
61,Lake Charles,LA,70605,South,0.28735632183908044,0.38036809815950917,0.2108843537414966,0.005234821053202598,0.30120481927710835,0.2465753424657534,0.4,0.4605263157894737,0.5394736842105263,0.6951219512195123,0.5999999999999999,0.06783774413498209,0.1215059342369803,0.1764705882352941,0.7647058823529411,0.1764705882352941,30.226594899999995,-93.21737579999999,110,4.01,2
62,Austin,TX,78745,South,0.2919540229885057,0.25153374233128833,0.48299319727891155,0.024275465505784074,0.6024096385542168,0.547945205479452,0.8,0.7105263157894738,0.2894736842105264,0.36585365853658536,0.5999999999999999,0.1505836126199006,0.12422984629353395,0.4705882352941176,0.4705882352941176,0.23529411764705882,30.267153000000004,-97.7430608,112,4.18,1
63,Conroe,TX,77301,South,0.18390804597701146,0.24539877300613494,0.12925170068027209,0.006645239160801226,0.10843373493975902,0.1917808219178082,0.2,0.6578947368421053,0.34210526315789475,0.9024390243902439,0.5111111111111113,0.08720674910435687,0.09624489266489389,0.23529411764705882,0.23529411764705882,0.4705882352941176,30.311876899999998,-95.4560512,104,3.98,2
64,Jacksonville,FL,32210,South,0.17816091954022986,0.4539877300613497,0.163265306122449,0.013629521135929046,0.4578313253012048,0.2876712328767123,0.2,0.736842105263158,0.2631578947368421,0.5487804878048781,0.5333333333333332,0.06506413960476136,0.15425773396458908,0.9411764705882353,0.4705882352941176,0.29411764705882354,30.3321838,-81.65565099999998,136,3.98,2
65,Pensacola,FL,32514,South,0.28735632183908044,0.40490797546012275,0.09523809523809525,0.01727762181808319,0.34939759036144574,0.3561643835616438,0.2,0.6973684210526316,0.3026315789473684,0.6585365853658537,0.5777777777777777,0.04703571015832659,0.060055775342110373,0.411764705882353,0.7647058823529411,0.0,30.42130899999999,-87.2169149,91,4.02,2
66,Tallahassee,FL,32303,South,0.2413793103448276,0.3374233128834356,0.13605442176870747,0.006319758059047696,0.6144578313253011,0.5890410958904109,0.2,0.8157894736842106,0.18421052631578944,0.39024390243902435,0.7999999999999998,0.06598867444816826,0.09420195862247871,0.411764705882353,0.8823529411764706,0.23529411764705882,30.4382559,-84.28073289999998,78,4.04,1
67,Baton Rouge,LA,70816,South,0.3160919540229885,0.39263803680981596,0.14965986394557823,0.022905732535904638,0.506024096385542,0.3972602739726028,0.4,0.618421052631579,0.3815789473684211,0.49999999999999994,0.7999999999999998,0.08078123194267885,0.09624489266489389,0.0,0.6470588235294117,0.0,30.451467699999995,-91.1871466,101,3.74,2
68,Round Rock,TX,78664,South,0.1264367816091954,0.25153374233128833,0.48299319727891155,0.0329413998399718,0.3373493975903614,0.4520547945205479,0.6,0.7894736842105263,0.21052631578947373,0.6585365853658537,0.2666666666666666,0.10435687044955508,0.10714054089110836,0.4705882352941176,0.23529411764705882,0.7058823529411764,30.508255100000003,-97.678896,131,4.07,2
69,College Station,TX,77840,South,0.2413793103448276,0.24539877300613494,0.20408163265306123,0.008747304609626104,0.25301204819277107,0.7123287671232876,0.4,0.6447368421052632,0.3552631578947369,0.7439024390243903,0.7555555555555558,0.08632844100312032,0.09420195862247871,0.4705882352941176,0.9411764705882353,0.6470588235294117,30.627977,-96.3344068,77,3.91,1
70,Bryan,TX,77803,South,0.25287356321839083,0.2883435582822086,0.19047619047619047,0.003010700191220147,0.25301204819277107,0.31506849315068497,0.4,0.6447368421052632,0.3552631578947369,0.7439024390243903,0.5333333333333332,0.04749797758003004,0.08054997081522797,0.4705882352941176,0.8823529411764706,0.4705882352941176,30.674364299999997,-96.3699632,67,3.87,2
71,Mobile,AL,36695,South,0.25287356321839083,0.46625766871165647,0.11564625850340136,0.016084191111653583,0.4216867469879518,0.2876712328767123,0.2,0.618421052631579,0.3815789473684211,0.5853658536585367,0.6444444444444444,0.04010169883277476,0.10033076074972436,0.29411764705882354,0.7058823529411764,0.23529411764705882,30.6953657,-88.0398912,96,4.0,2
72,Valdosta,GA,31602,South,0.2298850574712644,0.3006134969325153,0.12244897959183675,0.004122760622211373,0.4096385542168674,0.2602739726027397,0.2,0.736842105263158,0.2631578947368421,0.5975609756097562,0.7111111111111112,0.045186640471512766,0.09488293663661718,0.1764705882352941,1.0,0.411764705882353,30.8327022,-83.2784851,84,4.05,2
73,Killeen,TX,76549,South,0.16091954022988506,0.2883435582822086,0.0272108843537415,0.00840826179529951,0.3734939759036144,0.1917808219178082,0.2,0.6842105263157895,0.31578947368421056,0.6341463414634146,0.3111111111111111,0.038252629145960934,0.07506971917763794,0.4705882352941176,0.5294117647058822,0.411764705882353,31.117119399999996,-97.7277959,81,3.99,2
74,San Angelo,TX,76904,South,0.21839080459770113,0.20858895705521474,0.12925170068027209,0.0013154861195871816,0.18072289156626503,0.1917808219178082,0.4,0.5263157894736843,0.47368421052631576,0.8170731707317074,0.48888888888888893,0.045186640471512766,0.07030287307866911,0.4705882352941176,1.0,0.411764705882353,31.4637723,-100.4370375,106,4.23,2
75,Waco,TX,76706,South,0.26436781609195403,0.26993865030674846,0.20408163265306123,0.007689491028927133,0.30120481927710835,0.1917808219178082,0.2,0.5131578947368421,0.4868421052631579,0.7073170731707318,0.5999999999999999,0.044262105628105855,0.10169271677800118,0.7058823529411764,0.9411764705882353,0.29411764705882354,31.549333,-97.1466695,88,4.01,2
76,Albany,GA,31705,South,0.17241379310344826,0.3006134969325153,0.12244897959183675,0.003105632179231593,0.7108433734939759,0.2054794520547945,0.0,0.736842105263158,0.2631578947368421,0.2926829268292683,0.7111111111111112,0.029469548133595286,0.09144561904144233,0.23529411764705882,1.0,0.0,31.578507399999996,-84.15574099999998,79,3.95,2
77,El Paso,TX,79936,South,0.3298850574712644,0.15337423312883436,0.04081632653061225,0.012653077830668458,0.6746987951807228,0.2465753424657534,0.2,0.4868421052631579,0.513157894736842,0.32926829268292684,0.3555555555555556,0.04241303594129203,0.10101173876386271,0.7058823529411764,0.4705882352941176,0.6470588235294117,31.7618778,-106.48502169999999,126,4.19,2
78,Odessa,TX,79762,South,0.32183908045977017,0.10429447852760736,0.1564625850340136,0.004285501173088137,0.18072289156626503,0.16438356164383564,0.2,0.605263157894737,0.3947368421052632,0.8292682926829269,0.4222222222222223,0.08263030162949267,0.14741552629872234,0.7058823529411764,0.8823529411764706,0.23529411764705882,31.8456816,-102.3676431,77,3.8,2
79,Midland,TX,79705,South,0.29885057471264365,0.10429447852760736,0.2108843537414966,0.0018715163350827943,0.10843373493975902,0.2602739726027397,0.2,0.5,0.5,0.9024390243902439,0.288888888888889,0.07893216225586502,0.1303586484207795,0.4705882352941176,0.7647058823529411,0.5294117647058822,31.9973456,-102.0779146,96,3.97,2
80,Savannah,GA,31419,South,0.3563218390804598,0.3496932515337423,0.10884353741496598,0.012870065231837476,0.5542168674698795,0.273972602739726,0.2,0.7236842105263159,0.27631578947368424,0.4634146341463415,0.7555555555555558,0.0437998382064024,0.10101173876386271,0.6470588235294117,0.8823529411764706,0.411764705882353,32.0808989,-81.09120300000001,106,3.85,2
81,Tucson,AZ,85705,West,0.33218390804597697,0.1595092024539877,0.11564625850340136,0.0075945590409156865,0.506024096385542,0.273972602739726,0.4,0.7236842105263159,0.27631578947368424,0.48780487804878053,0.6444444444444444,0.07246041835201665,0.10989688047214474,1.0,0.6470588235294117,0.0,32.2226066,-110.9747108,105,4.22,2
82,Jackson,MS,39212,South,0.17241379310344826,0.24539877300613494,0.09523809523809525,0.014470347315458997,0.7469879518072289,0.273972602739726,0.2,0.5921052631578948,0.40789473684210537,0.25609756097560976,0.8666666666666667,0.016988327747601985,0.10853492444386792,0.0,0.7058823529411764,0.0,32.298757300000005,-90.1848103,96,3.98,2
83,Las Cruces,NM,88001,West,0.25287356321839083,0.12883435582822084,0.19047619047619047,0.0017494609219252208,0.5542168674698795,0.3972602739726028,0.6,0.3026315789473685,0.6973684210526316,0.42682926829268286,0.5111111111111113,0.055356523748988785,0.05324599520072637,0.8823529411764706,0.8823529411764706,0.29411764705882354,32.3199396,-106.7636538,100,4.21,2
84,Tyler,TX,75703,South,0.25287356321839083,0.31288343558282206,0.2653061224489796,0.004909339951449069,0.19277108433734935,0.3287671232876712,0.2,0.4605263157894737,0.5394736842105263,0.8170731707317074,0.4444444444444444,0.08447937131630649,0.10853492444386792,0.411764705882353,0.9411764705882353,0.29411764705882354,32.351260100000005,-95.3010624,85,4.03,2
85,Montgomery,AL,36117,South,0.17701149425287352,0.20245398773006135,0.14285714285714285,0.008747304609626104,0.6265060240963856,0.3561643835616438,0.2,0.6447368421052632,0.3552631578947369,0.39024390243902435,0.5777777777777777,0.068762278978389,0.11193981451455992,0.0,0.8823529411764706,0.29411764705882354,32.3792233,-86.3077368,75,3.94,2
86,Abilene,TX,79605,South,0.21839080459770113,0.22699386503067487,0.23129251700680276,0.003173440742096912,0.1566265060240964,0.2328767123287671,0.2,0.43421052631578955,0.5657894736842106,0.8536585365853658,0.4666666666666668,0.058107014908124345,0.11330177054283674,0.29411764705882354,1.0,0.29411764705882354,32.4487364,-99.73314390000002,98,4.16,2
87,Columbus,GA,31907,South,0.16091954022988506,0.2883435582822086,0.1564625850340136,0.02557738991279819,0.6024096385542168,0.2054794520547945,0.2,0.6578947368421053,0.34210526315789475,0.40243902439024387,0.4222222222222223,0.03270542008551947,0.08191192684350479,0.1764705882352941,0.7058823529411764,0.0,32.4609764,-84.9877094,78,4.01,2
88,Longview,TX,75604,South,0.20689655172413793,0.31288343558282206,0.0,0.005790851268698212,0.2409638554216867,0.2191780821917808,0.2,0.3552631578947369,0.6447368421052633,0.7682926829268293,0.5111111111111113,0.052120651797064606,0.15834360204941955,0.411764705882353,0.9411764705882353,0.23529411764705882,32.5007037,-94.7404891,98,4.1,2
89,Shreveport,LA,71106,South,0.21839080459770113,0.21472392638036808,0.12244897959183675,0.006943596837408628,0.506024096385542,0.2876712328767123,0.2,0.5789473684210527,0.4210526315789474,0.49999999999999994,0.6444444444444444,0.03547902461574021,0.09076464102730397,0.1764705882352941,0.7647058823529411,0.1764705882352941,32.5251516,-93.75017890000001,75,4.08,2
90,Chula Vista,CA,91911,West,0.3413793103448276,0.9938650306748467,0.17687074829931976,0.06748308176356511,0.506024096385542,0.31506849315068497,0.4,0.736842105263158,0.2631578947368421,0.48780487804878053,0.3555555555555556,0.20143302900728072,0.44163045593099415,0.1764705882352941,0.1764705882352941,0.7058823529411764,32.6400541,-117.0841955,146,4.3,0
91,Yuma,AZ,85364,West,0.2413793103448276,0.3558282208588957,0.06802721088435375,0.001098498718418162,0.3734939759036144,0.16438356164383564,0.2,0.8421052631578948,0.15789473684210525,0.6341463414634146,0.3111111111111111,0.05258291921876806,0.16654776574356311,1.0,1.0,0.411764705882353,32.6926512,-114.62769159999999,97,4.12,2
92,San Diego,CA,92154,West,0.442528735632184,0.9938650306748467,0.09523809523809525,0.056226860327922214,0.506024096385542,0.5068493150684932,0.4,0.736842105263158,0.2631578947368421,0.48780487804878053,0.5333333333333332,0.2315035247890905,0.44163045593099415,0.1764705882352941,0.5294117647058822,0.6470588235294117,32.715738,-117.1610838,122,4.37,1
93,Arlington,TX,76010,South,0.2827586206896552,0.27607361963190186,0.19047619047619047,0.05202272943027246,0.3734939759036144,0.3424657534246575,0.4,0.6315789473684211,0.3684210526315789,0.6219512195121951,0.4222222222222223,0.06968681382179591,0.017056877877942744,0.411764705882353,0.29411764705882354,0.29411764705882354,32.735687,-97.1080656,148,4.09,2
94,Grand Prairie,TX,75052,South,0.21839080459770113,0.27607361963190186,0.17687074829931976,0.03431113280985123,0.5662650602409638,0.2191780821917808,0.2,0.5921052631578948,0.40789473684210537,0.43902439024390244,0.33333333333333326,0.07893216225586502,0.13583890005836952,0.4705882352941176,0.23529411764705882,0.5294117647058822,32.7459645,-96.9977846,167,4.16,2
95,Fort Worth,TX,76137,South,0.24827586206896554,0.27607361963190186,0.1564625850340136,0.024546699757245348,0.3734939759036144,0.2876712328767123,0.4,0.6315789473684211,0.3684210526315789,0.6219512195121951,0.4222222222222223,0.0765745984051774,0.16586678772942476,0.411764705882353,0.23529411764705882,0.23529411764705882,32.7554883,-97.3307658,137,4.21,2
96,Mesquite,TX,75150,South,0.27586206896551724,0.27607361963190186,0.30612244897959184,0.04103774224609084,0.5662650602409638,0.136986301369863,0.2,0.5921052631578948,0.40789473684210537,0.43902439024390244,0.3999999999999999,0.057875881197272626,0.13583890005836952,0.411764705882353,0.0,0.23529411764705882,32.76679550000001,-96.5991593,163,3.99,2
97,Charleston,SC,29412,South,0.27586206896551724,0.4171779141104294,0.10884353741496598,0.014687334716628017,0.48192771084337344,0.5890410958904109,0.4,0.75,0.24999999999999994,0.5121951219512195,0.6222222222222222,0.12146076505258294,0.16246189765873276,0.9411764705882353,0.7058823529411764,0.6470588235294117,32.776474900000004,-79.93105120000001,103,3.93,1
98,Dallas,TX,75217,South,0.38620689655172413,0.27607361963190186,0.1564625850340136,0.04894422067618699,0.5662650602409638,0.3424657534246575,0.2,0.5921052631578948,0.40789473684210537,0.43902439024390244,0.5777777777777777,0.12259332023575639,0.13583890005836952,0.411764705882353,0.23529411764705882,0.23529411764705882,32.7766642,-96.7969879,141,4.1,2
99,El Cajon,CA,92021,West,0.48275862068965514,0.9938650306748467,0.22448979591836737,0.03284646785196035,0.506024096385542,0.2054794520547945,0.4,0.736842105263158,0.2631578947368421,0.48780487804878053,0.5777777777777777,0.1944990176817289,0.44163045593099415,0.1764705882352941,0.4705882352941176,0.5294117647058822,32.7947731,-116.96252690000001,165,4.27,0
100,Irving,TX,75061,South,0.367816091954023,0.25766871165644173,0.217687074829932,0.042217611239947384,0.5662650602409638,0.3835616438356164,0.2,0.5921052631578948,0.40789473684210537,0.43902439024390244,0.37777777777777777,0.09693747833121462,0.13583890005836952,0.4705882352941176,0.411764705882353,0.5294117647058822,32.814017699999994,-96.9488945,169,4.18,2
101,Macon,GA,31204,South,0.2298850574712644,0.24539877300613494,0.14965986394557823,0.006292634633901569,0.6024096385542168,0.136986301369863,0.2,0.6973684210526316,0.3026315789473684,0.4146341463414634,0.8222222222222222,0.03178088524211256,0.060055775342110373,0.5294117647058822,0.7058823529411764,0.0,32.8406946,-83.6324022,83,3.98,2
102,North Charleston,SC,29405,South,0.17241379310344826,0.39263803680981596,0.09523809523809525,0.024343274068649393,0.48192771084337344,0.1917808219178082,0.4,0.75,0.24999999999999994,0.5121951219512195,0.6444444444444444,0.06922454640009246,0.16246189765873276,0.9411764705882353,0.4705882352941176,0.0,32.8771106,-80.01305140000001,123,4.0,2
103,Garland,TX,75040,South,0.3034482758620689,0.25766871165644173,0.13605442176870747,0.05430109714254717,0.5662650602409638,0.2191780821917808,0.2,0.5921052631578948,0.40789473684210537,0.43902439024390244,0.3555555555555556,0.07153588350860973,0.10785394642972956,0.4705882352941176,0.1764705882352941,0.4705882352941176,32.912624,-96.6388833,169,4.16,2
104,Keller,TX,76244,South,0.1264367816091954,0.27607361963190186,0.17006802721088438,0.040535958880887485,0.3734939759036144,0.6712328767123288,0.4,0.6315789473684211,0.3684210526315789,0.6219512195121951,0.0444444444444444,0.16673985900843638,0.1283157143783643,0.4705882352941176,0.0,0.9411764705882353,32.9341893,-97.229298,146,4.17,1
105,Richardson,TX,75080,South,0.3448275862068966,0.25766871165644173,0.27891156462585037,0.047059142628531135,0.5662650602409638,0.6164383561643836,0.2,0.5921052631578948,0.40789473684210537,0.43902439024390244,0.24444444444444446,0.10601086328441003,0.13583890005836952,0.4705882352941176,0.4705882352941176,0.6470588235294117,32.948333500000004,-96.72985190000001,157,4.23,1
106,Carrollton,TX,75007,South,0.27586206896551724,0.2392638036809816,0.17006802721088438,0.04408912757503018,0.5662650602409638,0.4246575342465753,0.2,0.5921052631578948,0.40789473684210537,0.43902439024390244,0.24444444444444446,0.10225355368080435,0.13583890005836952,0.4705882352941176,0.411764705882353,0.6470588235294117,32.975641499999995,-96.88996359999999,156,4.27,2
107,Summerville,SC,29483,South,0.08045977011494251,0.25766871165644173,0.08843537414965986,0.008638810909041594,0.3734939759036144,0.31506849315068497,0.4,0.7105263157894738,0.2894736842105264,0.6219512195121951,0.288888888888889,0.07662082514734775,0.10101173876386271,0.9411764705882353,0.1764705882352941,0.4705882352941176,33.0185039,-80.17564809999998,102,4.06,2
108,Plano,TX,75025,South,0.3034482758620689,0.25766871165644173,0.163265306122449,0.047560925993734494,0.2891566265060241,0.6438356164383561,0.2,0.605263157894737,0.3947368421052632,0.7195121951219513,0.2222222222222222,0.1362533225470935,0.18156170957909068,0.4705882352941176,0.29411764705882354,0.7058823529411764,33.0198431,-96.6988856,155,4.25,1
109,Lewisville,TX,75067,South,0.27586206896551724,0.2392638036809816,0.12925170068027209,0.03932896646188481,0.27710843373493976,0.3561643835616438,0.4,0.8684210526315791,0.13157894736842107,0.7195121951219513,0.37777777777777777,0.09742285912400324,0.11262079252869828,0.4705882352941176,0.411764705882353,0.5294117647058822,33.046233,-96.994174,154,4.23,2
110,Allen,TX,75002,South,0.17241379310344826,0.25766871165644173,0.1564625850340136,0.02404491639204199,0.2891566265060241,0.6575342465753424,0.2,0.605263157894737,0.3947368421052632,0.7195121951219513,0.0888888888888889,0.1366693632266266,0.07030287307866911,0.4705882352941176,0.1764705882352941,0.8823529411764706,33.1031744,-96.67055030000002,142,4.24,1
111,Escondido,CA,92027,West,0.3563218390804598,0.7975460122699387,0.17687074829931976,0.015731586584753925,0.506024096385542,0.2191780821917808,0.4,0.736842105263158,0.2631578947368421,0.48780487804878053,0.37777777777777777,0.20097076158557725,0.44163045593099415,0.1764705882352941,0.411764705882353,0.5294117647058822,33.1192068,-117.086421,146,4.22,0
112,Frisco,TX,75034,South,0.11494252873563218,0.25766871165644173,0.3673469387755102,0.02192928923064405,0.27710843373493976,0.7534246575342465,0.4,0.605263157894737,0.3947368421052632,0.7195121951219513,0.0,0.16895273315613082,0.19861858745703354,0.4705882352941176,0.1764705882352941,0.7058823529411764,33.1506744,-96.8236116,158,4.22,1
113,Carlsbad,CA,92009,West,0.19540229885057472,0.7975460122699387,0.06802721088435375,0.0373896415639367,0.506024096385542,0.6164383561643836,0.4,0.736842105263158,0.2631578947368421,0.48780487804878053,0.2666666666666666,0.32855656997573096,0.44163045593099415,0.1764705882352941,0.0,0.7058823529411764,33.158093300000004,-117.3505939,124,4.15,1
114,Oceanside,CA,92057,West,0.27586206896551724,0.7975460122699387,0.17006802721088438,0.037593067252532655,0.506024096385542,0.3013698630136986,0.4,0.736842105263158,0.2631578947368421,0.48780487804878053,0.3999999999999999,0.20651797064601873,0.44163045593099415,0.1764705882352941,0.1764705882352941,0.5294117647058822,33.1958696,-117.3794834,123,4.08,0
115,Mckinney,TX,75070,South,0.14942528735632185,0.25766871165644173,0.19727891156462585,0.014361853614874487,0.2891566265060241,0.5753424657534245,0.2,0.605263157894737,0.3947368421052632,0.7195121951219513,0.1333333333333333,0.12238529989598984,0.11466372657111357,0.4705882352941176,0.0,0.7058823529411764,33.1983388,-96.63893420000001,146,4.01,2
116,Vista,CA,92084,West,0.3563218390804598,0.7975460122699387,0.17687074829931976,0.037199777587913804,0.506024096385542,0.1917808219178082,0.4,0.736842105263158,0.2631578947368421,0.48780487804878053,0.4666666666666668,0.1944990176817289,0.13103962643491796,0.1764705882352941,0.5294117647058822,0.6470588235294117,33.2000368,-117.2425355,129,4.23,2
117,Tuscaloosa,AL,35401,South,0.2298850574712644,0.1901840490797546,0.13605442176870747,0.007540312190623432,0.3734939759036144,0.4246575342465753,0.2,0.6447368421052632,0.3552631578947369,0.6341463414634146,0.7777777777777779,0.05720559343580261,0.07370776314936112,0.0,0.7058823529411764,0.1764705882352941,33.2098407,-87.56917349999998,93,4.01,2
118,Denton,TX,76210,South,0.21839080459770113,0.2392638036809816,0.14965986394557823,0.018593107937670373,0.27710843373493976,0.4246575342465753,0.4,0.8684210526315791,0.13157894736842107,0.7195121951219513,0.6444444444444444,0.08817751068993412,0.05937479732797191,0.4705882352941176,0.29411764705882354,0.6470588235294117,33.2148412,-97.1330683,110,4.13,2
119,Chandler,AZ,85225,West,0.2298850574712644,0.2392638036809816,0.23129251700680276,0.021088463051114097,0.397590361445783,0.4794520547945205,0.4,0.7894736842105263,0.21052631578947373,0.5975609756097562,0.3555555555555556,0.11822489310065873,0.10785394642972956,0.7058823529411764,0.4705882352941176,0.6470588235294117,33.3061605,-111.8412502,135,4.22,2
120,Gilbert,AZ,85234,West,0.18850574712643678,0.2392638036809816,0.19727891156462585,0.04041390346772991,0.397590361445783,0.4794520547945205,0.4,0.7894736842105263,0.21052631578947373,0.5975609756097562,0.1777777777777777,0.120536230209176,0.10101173876386271,0.7058823529411764,0.23529411764705882,0.7647058823529411,33.3528264,-111.789027,132,4.21,2
121,Mesa,AZ,85204,West,0.2804597701149425,0.2392638036809816,0.17687074829931976,0.027001369732969883,0.397590361445783,0.273972602739726,0.4,0.7894736842105263,0.21052631578947373,0.5975609756097562,0.3999999999999999,0.09048884779845141,0.11193981451455992,0.7058823529411764,0.29411764705882354,0.5294117647058822,33.4151843,-111.83147240000001,152,4.24,2
122,Tempe,AZ,85281,West,0.45977011494252873,0.25766871165644173,0.17687074829931976,0.05500630619634648,0.397590361445783,0.4657534246575343,0.4,0.7894736842105263,0.21052631578947373,0.5975609756097562,0.8444444444444443,0.09742285912400324,0.07506971917763794,0.7058823529411764,0.7058823529411764,0.23529411764705882,33.4255104,-111.9400054,144,4.25,2
123,Phoenix,AZ,85032,West,0.325287356321839,0.25766871165644173,0.2108843537414966,0.0392204727613003,0.397590361445783,0.3013698630136986,0.4,0.7894736842105263,0.21052631578947373,0.5975609756097562,0.5555555555555554,0.09014214723217381,0.11193981451455992,0.7058823529411764,0.411764705882353,0.29411764705882354,33.4483771,-112.07403729999999,156,4.27,2
124,Augusta,GA,30906,South,0.11494252873563218,0.2392638036809816,0.17006802721088438,0.015026377530954609,0.6867469879518071,0.2191780821917808,0.0,0.7236842105263159,0.27631578947368424,0.32926829268292684,0.4666666666666668,0.027620478446781463,0.06618457746935591,0.4705882352941176,0.7058823529411764,0.1764705882352941,33.4734978,-82.0105148,82,3.98,2
125,Temecula,CA,92592,West,0.20689655172413793,0.22085889570552147,0.272108843537415,0.00905922399880657,0.46987951807228906,0.3835616438356164,0.4,0.75,0.24999999999999994,0.524390243902439,0.288888888888889,0.18201779729573558,0.4750632336727413,0.0,0.0,0.6470588235294117,33.4936391,-117.14836480000001,90,4.17,0
126,Scottsdale,AZ,85254,West,0.2172413793103448,0.25766871165644173,0.326530612244898,0.01033402498067456,0.397590361445783,0.6849315068493151,0.4,0.7894736842105263,0.21052631578947373,0.5975609756097562,0.3555555555555556,0.167225239801225,0.11193981451455992,0.7058823529411764,0.6470588235294117,0.6470588235294117,33.494170399999994,-111.9260519,150,4.29,1
127,Birmingham,AL,35242,South,0.26436781609195403,0.22085889570552147,0.11564625850340136,0.018945712464570028,0.5180722891566265,0.2602739726027397,0.0,0.5263157894736843,0.47368421052631576,0.49999999999999994,0.7999999999999998,0.08355483647289957,0.09896880472144753,0.0,0.5294117647058822,0.0,33.5185892,-86.8103567,116,3.96,2
128,Glendale,AZ,85308,West,0.2701149425287356,0.2392638036809816,0.17687074829931976,0.048767918412737164,0.397590361445783,0.2191780821917808,0.4,0.7894736842105263,0.21052631578947373,0.5975609756097562,0.5555555555555554,0.08350860973072922,0.4074842726506258,0.7058823529411764,0.23529411764705882,0.0,33.538652299999995,-112.18598659999999,148,4.28,0
129,Murrieta,CA,92562,West,0.17241379310344826,0.4171779141104294,0.27891156462585037,0.011893621926576888,0.46987951807228906,0.2876712328767123,0.4,0.75,0.24999999999999994,0.524390243902439,0.2666666666666666,0.16905720559343582,0.4750632336727413,0.0,0.0,0.7647058823529411,33.553914299999995,-117.21392320000001,99,4.12,0
130,Lubbock,TX,79424,South,0.28505747126436776,0.12269938650306748,0.17687074829931976,0.007418256777465859,0.22891566265060237,0.31506849315068497,0.4,0.5263157894736843,0.47368421052631576,0.7804878048780488,0.5555555555555554,0.044724373049809314,0.07643167520591476,0.411764705882353,1.0,0.0,33.5778631,-101.85516650000001,74,4.02,2
131,Peoria,AZ,85345,West,0.16091954022988506,0.2392638036809816,0.2653061224489796,0.017006387566621914,0.397590361445783,0.3287671232876712,0.4,0.7894736842105263,0.21052631578947373,0.5975609756097562,0.33333333333333326,0.10389460302785161,0.14264868019975352,0.7058823529411764,0.1764705882352941,0.6470588235294117,33.5805955,-112.23737790000001,140,4.2,2
132,Mission Viejo,CA,92691,West,0.31034482758620685,0.6441717791411044,0.19047619047619047,0.06866295075742165,0.4216867469879518,0.6164383561643836,0.4,0.7236842105263159,0.27631578947368424,0.5731707317073171,0.1777777777777777,0.28926383913093723,0.4750632336727413,0.0,0.23529411764705882,0.8823529411764706,33.596891299999996,-117.6581562,128,4.26,1
133,Surprise,AZ,85374,West,0.09195402298850575,0.2392638036809816,0.2585034013605442,0.016925017291183533,0.397590361445783,0.31506849315068497,0.4,0.7894736842105263,0.21052631578947373,0.5975609756097562,0.06666666666666665,0.08955969028082747,0.10101173876386271,0.7058823529411764,0.0,0.7647058823529411,33.62923370000001,-112.36792790000001,139,4.18,2
134,Huntington Beach,CA,92647,West,0.48275862068965514,0.6441717791411044,0.2925170068027211,0.08175000339042815,0.4216867469879518,0.4794520547945205,0.4,0.7236842105263159,0.27631578947368424,0.5731707317073171,0.37777777777777777,0.32185369236103084,0.39999351449510345,0.0,0.1764705882352941,0.6470588235294117,33.6594835,-117.99880259999999,164,4.34,1
135,Costa Mesa,CA,92627,West,0.574712643678161,0.6441717791411044,0.23809523809523808,0.09371143387987035,0.4216867469879518,0.41095890410958896,0.4,0.7236842105263159,0.27631578947368424,0.5731707317073171,0.5333333333333332,0.32116029122847567,0.4750632336727413,0.0,0.6470588235294117,0.4705882352941176,33.6638439,-117.9047429,150,4.37,0
136,Irvine,CA,92620,West,0.3896551724137931,0.6441717791411044,0.2108843537414966,0.03924759618644643,0.4216867469879518,0.8493150684931507,0.4,0.7236842105263159,0.27631578947368424,0.5731707317073171,0.3555555555555556,0.33710851727724483,0.4750632336727413,0.0,0.29411764705882354,0.8823529411764706,33.6845673,-117.82650490000002,145,4.37,1
137,Myrtle Beach,SC,29588,South,0.31034482758620685,0.39263803680981596,0.04761904761904763,0.012436090429499438,0.30120481927710835,0.2602739726027397,0.2,0.7631578947368421,0.2368421052631579,0.7073170731707318,0.5111111111111113,0.05581879117069224,0.1064595628769699,0.9411764705882353,0.9411764705882353,0.0,33.689060299999994,-78.8866943,103,4.03,2
138,Indio,CA,92201,West,0.18390804597701146,0.22085889570552147,0.12244897959183675,0.029293299157817653,0.46987951807228906,0.12328767123287673,0.4,0.75,0.24999999999999994,0.524390243902439,0.288888888888889,0.11591355599214145,0.4750632336727413,0.0,0.411764705882353,0.411764705882353,33.7205771,-116.2155619,74,4.12,0
139,Santa Ana,CA,92704,West,0.5896551724137931,0.6441717791411044,0.2585034013605442,0.13584767484437935,0.4216867469879518,0.0821917808219178,0.4,0.7236842105263159,0.27631578947368424,0.5731707317073171,0.4444444444444444,0.22916907430948805,0.4750632336727413,0.0,0.29411764705882354,0.7058823529411764,33.7454725,-117.867653,139,4.35,0
140,Hemet,CA,92544,West,0.2298850574712644,0.4171779141104294,0.27891156462585037,0.008381138370153383,0.46987951807228906,0.0684931506849315,0.4,0.75,0.24999999999999994,0.524390243902439,0.5555555555555554,0.09280018490696869,0.4750632336727413,0.0,0.1764705882352941,0.1764705882352941,33.7475203,-116.97196840000001,92,4.07,0
141,Atlanta,GA,31139,South,0.4126436781609195,0.3067484662576687,0.163265306122449,0.0344331882230088,0.6506024096385541,0.5753424657534245,0.2,0.5394736842105263,0.4605263157894736,0.35365853658536583,0.8444444444444443,0.10725759852074425,0.16654776574356311,0.23529411764705882,0.29411764705882354,0.0,33.7489954,-84.3879824,133,4.12,1
142,Douglasville,GA,30135,South,0.11494252873563218,0.24539877300613494,0.12244897959183675,0.010469642106405197,0.506024096385542,0.3287671232876712,0.2,0.75,0.24999999999999994,0.5121951219512195,0.5111111111111113,0.06321506991794754,0.08735975095661197,0.23529411764705882,0.0,0.0,33.7514966,-84.7477136,104,3.74,2
143,Westminster,CA,92683,West,0.5287356321839081,0.6441717791411044,0.217687074829932,0.12159431493008938,0.4216867469879518,0.2191780821917808,0.4,0.7236842105263159,0.27631578947368424,0.5731707317073171,0.37777777777777777,0.2558419045417774,0.4750632336727413,0.0,0.23529411764705882,0.5294117647058822,33.75917570000001,-117.9897058,169,4.37,0
144,Long Beach,CA,90805,West,0.6413793103448275,1.0,0.17006802721088438,0.11679346867922483,0.7108433734939759,0.3287671232876712,0.4,0.5526315789473685,0.4473684210526316,0.28048780487804875,0.6222222222222222,0.21992372587541895,0.4074842726506258,0.0,0.0,0.5294117647058822,33.770050399999995,-118.1937395,153,4.33,0
145,Garden Grove,CA,92840,West,0.5172413793103449,0.6441717791411044,0.23129251700680276,0.1305857303660306,0.4216867469879518,0.1780821917808219,0.4,0.7236842105263159,0.27631578947368424,0.5731707317073171,0.4222222222222223,0.23610308563503987,0.24437382450223744,0.0,0.23529411764705882,0.7058823529411764,33.774269200000006,-117.9379952,164,4.36,2
146,Decatur,GA,30032,South,0.5057471264367817,0.25766871165644173,0.12244897959183675,0.04125472964725986,0.8192771084337349,0.9178082191780821,0.2,0.855263157894737,0.1447368421052631,0.18292682926829268,0.5555555555555554,0.06506413960476136,0.09556391465075553,0.23529411764705882,0.5294117647058822,0.4705882352941176,33.7748275,-84.2963123,136,4.15,1
147,Perris,CA,92570,West,0.1264367816091954,0.22085889570552147,0.272108843537415,0.011785128225992378,0.46987951807228906,0.027397260273972615,0.4,0.75,0.24999999999999994,0.524390243902439,0.48888888888888893,0.11637582341384492,0.14264868019975352,0.0,0.0,0.5294117647058822,33.7825194,-117.22864779999999,147,4.04,2
148,Orange,CA,92867,West,0.4252873563218391,0.6441717791411044,0.272108843537415,0.07351804385857846,0.4216867469879518,0.3972602739726028,0.4,0.7236842105263159,0.27631578947368424,0.5731707317073171,0.4444444444444444,0.2666127354674679,0.4750632336727413,0.0,0.29411764705882354,0.7647058823529411,33.7879139,-117.8531007,147,4.36,0
149,Torrance,CA,90503,West,0.5862068965517242,1.0,0.2857142857142857,0.10013968563950257,0.7108433734939759,0.5342465753424657,0.4,0.5526315789473685,0.4473684210526316,0.28048780487804875,0.3555555555555556,0.297122385299896,0.4074842726506258,0.0,0.29411764705882354,0.7058823529411764,33.835849200000006,-118.34062879999999,164,4.29,1
150,Anaheim,CA,92804,West,0.4666666666666667,0.6441717791411044,0.19727891156462585,0.10058722215441367,0.4216867469879518,0.2465753424657534,0.4,0.7236842105263159,0.27631578947368424,0.5731707317073171,0.4222222222222223,0.23009360915289495,0.4750632336727413,0.0,0.1764705882352941,0.5294117647058822,33.8365932,-117.91430120000001,161,4.33,0
151,Fullerton,CA,92833,West,0.47126436781609193,0.6441717791411044,0.24489795918367346,0.08230603360592376,0.4216867469879518,0.4520547945205479,0.4,0.7236842105263159,0.27631578947368424,0.5731707317073171,0.3999999999999999,0.263145729804692,0.4750632336727413,0.0,0.0,0.5294117647058822,33.8703645,-117.9242123,169,4.31,0
152,Corona,CA,92882,West,0.27586206896551724,0.22085889570552147,0.25170068027210885,0.021807233817486477,0.46987951807228906,0.3013698630136986,0.4,0.75,0.24999999999999994,0.524390243902439,0.33333333333333326,0.19773488963365307,0.09624489266489389,0.0,0.0,0.7058823529411764,33.8752935,-117.56643840000001,151,4.23,2
153,Compton,CA,90221,West,0.5632183908045977,1.0,0.272108843537415,0.1233844609897338,0.7108433734939759,0.0547945205479452,0.4,0.5526315789473685,0.4473684210526316,0.28048780487804875,0.6222222222222222,0.13925806078816597,0.4074842726506258,0.0,0.0,0.411764705882353,33.8958492,-118.2200712,174,4.36,0
154,Norwalk,CA,90650,West,0.5287356321839081,1.0,0.12925170068027209,0.14567991645985054,0.7108433734939759,0.136986301369863,0.4,0.5526315789473685,0.4473684210526316,0.28048780487804875,0.5333333333333332,0.19218768057321162,0.462092223879629,0.0,0.0,0.6470588235294117,33.9022367,-118.08173300000001,169,4.34,0
155,Wichita Falls,TX,76308,South,0.20689655172413793,0.1901840490797546,0.08163265306122448,0.00287508306548951,0.19277108433734935,0.2465753424657534,0.4,0.5,0.5,0.8170731707317074,0.4444444444444444,0.044724373049809314,0.06346066541280238,0.411764705882353,1.0,0.23529411764705882,33.913708500000006,-98.49338730000001,87,4.09,2
156,Hawthorne,CA,90250,West,0.6206896551724138,1.0,0.30612244897959184,0.188548489903305,0.7108433734939759,0.1780821917808219,0.4,0.5526315789473685,0.4473684210526316,0.28048780487804875,0.6222222222222222,0.2557494510574367,0.4074842726506258,0.0,0.0,0.5294117647058822,33.9164032,-118.35257479999999,157,4.31,0
157,Downey,CA,90242,West,0.5057471264367817,1.0,0.3129251700680272,0.1218113023312584,0.7108433734939759,0.2465753424657534,0.4,0.5526315789473685,0.4473684210526316,0.28048780487804875,0.4444444444444444,0.22223506298393622,0.4074842726506258,0.0,0.0,0.5294117647058822,33.9401088,-118.13315929999999,172,4.36,0
158,Norcross,GA,30093,South,0.574712643678161,0.25766871165644173,0.163265306122449,0.04182432157532854,0.4216867469879518,0.273972602739726,0.2,0.7631578947368421,0.2368421052631579,0.5853658536585367,0.37777777777777777,0.06968681382179591,0.08735975095661197,0.23529411764705882,0.0,0.23529411764705882,33.9412127,-84.2135309,160,4.17,2
159,Moreno Valley,CA,92553,West,0.20689655172413793,0.4171779141104294,0.3129251700680272,0.022539566296431918,0.46987951807228906,0.1506849315068493,0.4,0.75,0.24999999999999994,0.524390243902439,0.5111111111111113,0.12192303247428637,0.5481224463324469,0.0,0.0,0.5294117647058822,33.9424658,-117.2296717,151,4.11,0
160,Athens,GA,30606,South,0.17241379310344826,0.2883435582822086,0.13605442176870747,0.012205541315757355,0.6385542168674698,0.5342465753424657,0.6,0.8421052631578948,0.15789473684210525,0.34146341463414637,0.6666666666666667,0.05581879117069224,0.08463583890005832,0.7058823529411764,0.9411764705882353,0.411764705882353,33.9519347,-83.357567,84,3.99,1
161,Marietta,GA,30062,South,0.26436781609195403,0.24539877300613494,0.14285714285714285,0.029062750044075568,0.397590361445783,0.43835616438356156,0.4,0.7105263157894738,0.2894736842105264,0.6097560975609757,0.5333333333333332,0.11267768404021727,0.08735975095661197,0.23529411764705882,0.1764705882352941,0.23529411764705882,33.95260200000001,-84.5499327,151,4.14,2
162,South Gate,CA,90280,West,0.5862068965517242,1.0,0.14285714285714285,0.1750139007553874,0.7108433734939759,0.027397260273972615,0.4,0.5526315789473685,0.4473684210526316,0.28048780487804875,0.5333333333333332,0.16907430948803884,0.4074842726506258,0.0,0.0,0.4705882352941176,33.954737,-118.21201609999999,175,4.36,0
163,Lawrenceville,GA,30043,South,0.20689655172413793,0.3067484662576687,0.14285714285714285,0.03262948045079133,0.4216867469879518,0.2191780821917808,0.2,0.7631578947368421,0.2368421052631579,0.5853658536585367,0.5555555555555554,0.07430948803883047,0.08735975095661197,0.29411764705882354,0.0,0.5294117647058822,33.9562149,-83.9879625,135,3.99,2
164,Inglewood,CA,90301,West,0.6206896551724138,1.0,0.2857142857142857,0.1748240367793645,0.7108433734939759,0.1780821917808219,0.4,0.5526315789473685,0.4473684210526316,0.28048780487804875,0.6444444444444444,0.20836704033283254,0.4074842726506258,0.0,0.0,0.5294117647058822,33.9616801,-118.3531311,149,4.27,0
165,Bell Gardens,CA,90201,West,0.6091954022988506,1.0,0.3129251700680272,0.23111870567015202,0.7108433734939759,0.0,0.4,0.5526315789473685,0.4473684210526316,0.28048780487804875,0.5555555555555554,0.19311221541661852,0.4074842726506258,0.0,0.0,0.7058823529411764,33.965291799999996,-118.1514588,184,4.36,0
166,Whittier,CA,90605,West,0.5517241379310345,1.0,0.1564625850340136,0.08021752986967194,0.7108433734939759,0.2876712328767123,0.4,0.5526315789473685,0.4473684210526316,0.28048780487804875,0.48888888888888893,0.2129897145498671,0.4074842726506258,0.0,0.0,0.5294117647058822,33.97917929999999,-118.032844,176,4.33,0
167,Riverside,CA,92503,West,0.33218390804597697,0.22085889570552147,0.1564625850340136,0.03781005465370167,0.46987951807228906,0.2602739726027397,0.4,0.75,0.24999999999999994,0.524390243902439,0.5111111111111113,0.1505836126199006,0.2887346779946819,0.0,0.0,0.4705882352941176,33.9806005,-117.3754942,150,4.23,2
168,Lexington,SC,29072,South,0.13793103448275865,0.2392638036809816,0.08163265306122448,0.0080014104181076,0.2409638554216867,0.5068493150684932,0.4,0.6578947368421053,0.34210526315789475,0.7560975609756099,0.37777777777777777,0.0604414653877268,0.08395486088591997,0.4705882352941176,0.5294117647058822,0.4705882352941176,33.9815369,-81.2362107,102,4.1,2
169,Columbia,SC,29223,South,0.28735632183908044,0.2392638036809816,0.07482993197278913,0.014931445542943164,0.6746987951807228,0.5068493150684932,0.2,0.7631578947368421,0.2368421052631579,0.32926829268292684,0.7999999999999998,0.056281058592395704,0.12286789026525713,0.411764705882353,1.0,0.0,34.0007104,-81.0348144,108,4.01,1
170,Duluth,GA,30096,South,0.18390804597701146,0.3067484662576687,0.12925170068027209,0.03088001952886611,0.4216867469879518,0.5205479452054793,0.2,0.7631578947368421,0.2368421052631579,0.5853658536585367,0.3555555555555556,0.10860973072922686,0.08735975095661197,0.29411764705882354,0.1764705882352941,0.6470588235294117,34.0028786,-84.1446376,154,4.15,2
171,Santa Monica,CA,90405,West,0.7816091954022989,1.0,0.2925170068027211,0.13971276292770252,0.7108433734939759,0.821917808219178,0.4,0.5526315789473685,0.4473684210526316,0.28048780487804875,0.6888888888888889,0.6267190569744597,0.4750632336727413,0.0,0.4705882352941176,0.411764705882353,34.01945429999999,-118.4911912,164,4.31,1
172,La Puente,CA,91744,West,0.49425287356321845,1.0,0.19047619047619047,0.1088734285365556,0.7108433734939759,0.0821917808219178,0.4,0.5526315789473685,0.4473684210526316,0.28048780487804875,0.4666666666666668,0.17693285565699757,0.4074842726506258,0.0,0.0,0.7647058823529411,34.0200114,-117.94950829999999,164,4.33,0
173,Roswell,GA,30075,South,0.1264367816091954,0.3067484662576687,0.1020408163265306,0.02822192386454562,0.6506024096385541,0.7123287671232876,0.2,0.5394736842105263,0.4605263157894736,0.35365853658536583,0.288888888888889,0.14827227551138333,0.16654776574356311,0.29411764705882354,0.1764705882352941,0.7058823529411764,34.0232431,-84.36155550000001,155,4.23,1
174,Kennesaw,GA,30144,South,0.16091954022988506,0.24539877300613494,0.19727891156462585,0.028574528391445274,0.397590361445783,0.43835616438356156,0.4,0.7105263157894738,0.2894736842105264,0.6097560975609757,0.4222222222222223,0.08355483647289957,0.08735975095661197,0.29411764705882354,0.0,0.7647058823529411,34.023433700000005,-84.6154897,143,4.12,2
175,Los Angeles,CA,90011,West,0.6195402298850575,1.0,0.23129251700680276,0.14950431940545453,0.7108433734939759,0.3698630136986301,0.4,0.5526315789473685,0.4473684210526316,0.28048780487804875,0.5999999999999999,0.27320004622674215,0.4074842726506258,0.0,0.0,0.6470588235294117,34.0522342,-118.24368490000002,149,4.36,0
176,Pomona,CA,91766,West,0.4367816091954023,1.0,0.18367346938775514,0.08534385722229004,0.7108433734939759,0.1506849315068493,0.4,0.5526315789473685,0.4473684210526316,0.28048780487804875,0.5555555555555554,0.1644516352710043,0.4074842726506258,0.0,0.1764705882352941,0.4705882352941176,34.055103,-117.7499909,143,4.3,0
177,Ontario,CA,91761,West,0.3563218390804598,0.2392638036809816,0.272108843537415,0.044319676688772264,0.506024096385542,0.12328767123287673,0.4,0.7631578947368421,0.2368421052631579,0.48780487804878053,0.3999999999999999,0.15358835086097308,0.2675595045074258,0.0,0.0,0.5294117647058822,34.0633443,-117.65088759999999,138,4.3,0
178,El Monte,CA,91732,West,0.5287356321839081,1.0,0.19727891156462585,0.14612745297476165,0.7108433734939759,0.0958904109589041,0.4,0.5526315789473685,0.4473684210526316,0.28048780487804875,0.3999999999999999,0.19912169189876344,0.4074842726506258,0.0,0.0,0.7058823529411764,34.0686206,-118.02756670000001,164,4.31,0
179,West Covina,CA,91790,West,0.3563218390804598,1.0,0.19727891156462585,0.09004977148514315,0.7108433734939759,0.2602739726027397,0.4,0.5526315789473685,0.4473684210526316,0.28048780487804875,0.4666666666666668,0.20490003467005663,0.4074842726506258,0.0,0.0,0.4705882352941176,34.0686208,-117.93895259999998,160,4.29,0
180,Alpharetta,GA,30022,South,0.11494252873563218,0.3067484662576687,0.163265306122449,0.02077654366193363,0.6506024096385541,0.8082191780821917,0.2,0.5394736842105263,0.4605263157894736,0.35365853658536583,0.15555555555555556,0.15936669363226627,0.08531681691419679,0.29411764705882354,0.4705882352941176,0.7058823529411764,34.07537620000001,-84.2940899,147,4.19,1
181,Fontana,CA,92335,West,0.25287356321839083,0.2331288343558282,0.23129251700680276,0.05333821554985964,0.506024096385542,0.136986301369863,0.4,0.7631578947368421,0.2368421052631579,0.48780487804878053,0.3999999999999999,0.14688547324627296,0.24437382450223744,1.0,0.0,0.7058823529411764,34.0922335,-117.435048,147,4.25,2
182,Rancho Cucamonga,CA,91730,West,0.31034482758620685,0.2392638036809816,0.13605442176870747,0.03745745012680202,0.506024096385542,0.3698630136986301,0.4,0.7631578947368421,0.2368421052631579,0.48780487804878053,0.37777777777777777,0.20605570322431527,0.2648355924508723,0.0,0.0,0.7058823529411764,34.10639889999999,-117.5931084,124,4.28,2
183,Rialto,CA,92376,West,0.25287356321839083,0.20858895705521474,0.22448979591836737,0.05777289556125148,0.506024096385542,0.0410958904109589,0.4,0.7631578947368421,0.2368421052631579,0.48780487804878053,0.4666666666666668,0.12747024153472786,0.24437382450223744,0.0,0.0,0.5294117647058822,34.1064001,-117.37032350000001,156,4.2,2
184,San Bernardino,CA,92404,West,0.33218390804597697,0.26993865030674846,0.2925170068027211,0.02652670979291265,0.506024096385542,0.0821917808219178,0.4,0.7631578947368421,0.2368421052631579,0.48780487804878053,0.6222222222222222,0.09488038830463423,0.44163045593099415,0.0,0.1764705882352941,0.1764705882352941,34.1083449,-117.2897652,135,4.12,0
185,Glendale,CA,91205,West,0.6436781609195402,1.0,0.17006802721088438,0.09125676390414582,0.7108433734939759,0.43835616438356156,0.4,0.5526315789473685,0.4473684210526316,0.28048780487804875,0.288888888888889,0.31977348896336527,0.4074842726506258,0.0,0.29411764705882354,0.7647058823529411,34.1425078,-118.255075,142,4.39,0
186,Pasadena,CA,91104,West,0.5977011494252874,1.0,0.1564625850340136,0.08161438626469751,0.7108433734939759,0.6712328767123288,0.4,0.5526315789473685,0.4473684210526316,0.28048780487804875,0.5555555555555554,0.31468854732462725,0.4074842726506258,0.0,0.29411764705882354,0.5294117647058822,34.1477849,-118.1445155,157,4.36,1
187,Thousand Oaks,CA,91360,West,0.25287356321839083,0.834355828220859,0.3333333333333333,0.0309207046665853,0.506024096385542,0.5890410958904109,0.4,0.7236842105263159,0.27631578947368424,0.48780487804878053,0.24444444444444446,0.30775453599907543,0.4750632336727413,0.6470588235294117,0.411764705882353,0.8823529411764706,34.1705609,-118.83759369999999,121,4.22,1
188,Burbank,CA,91505,West,0.6436781609195402,1.0,0.12925170068027209,0.08151945427668607,0.7108433734939759,0.4657534246575343,0.4,0.5526315789473685,0.4473684210526316,0.28048780487804875,0.3555555555555556,0.3151508147463307,0.4074842726506258,0.0,0.23529411764705882,0.6470588235294117,34.18083920000001,-118.30896609999998,153,4.36,0
189,Florence,SC,29501,South,0.20689655172413793,0.22699386503067487,0.07482993197278913,0.004936463376595196,0.46987951807228906,0.3698630136986301,0.2,0.736842105263158,0.2631578947368421,0.5365853658536586,0.5111111111111113,0.053969721483878415,0.0900836630131655,0.0,0.8823529411764706,0.0,34.1954331,-79.7625625,86,4.04,2
190,Oxnard,CA,93033,West,0.47126436781609193,0.8957055214723928,0.3197278911564626,0.04516050286830221,0.506024096385542,0.1506849315068493,0.4,0.7236842105263159,0.27631578947368424,0.48780487804878053,0.4444444444444444,0.18756500635617704,0.06825993903625394,0.6470588235294117,0.4705882352941176,0.6470588235294117,34.1975048,-119.17705159999998,95,4.1,2
191,Wilmington,NC,28403,South,0.25287356321839083,0.4294478527607362,0.061224489795918366,0.01662665961457613,0.4457831325301204,0.49315068493150677,0.2,0.6973684210526316,0.3026315789473684,0.5609756097560976,0.5999999999999999,0.07893216225586502,0.1488099098514819,1.0,0.9411764705882353,0.1764705882352941,34.2103894,-77.88681170000001,85,4.1,2
192,Simi Valley,CA,93065,West,0.31034482758620685,0.834355828220859,0.29931972789115646,0.026404654379755078,0.506024096385542,0.3972602739726028,0.4,0.736842105263158,0.2631578947368421,0.48780487804878053,0.3111111111111111,0.22916907430948805,0.5481224463324469,0.0,0.0,0.8823529411764706,34.2694474,-118.78148200000001,134,4.17,0
193,Ventura,CA,93003,West,0.47126436781609193,0.8957055214723928,0.2585034013605442,0.006333319771620761,0.506024096385542,0.3287671232876712,0.4,0.7236842105263159,0.27631578947368424,0.48780487804878053,0.288888888888889,0.24299087021842133,0.4750632336727413,0.6470588235294117,0.5294117647058822,0.411764705882353,34.28049229999999,-119.2945199,93,4.24,0
194,Gainesville,GA,30506,South,0.2413793103448276,0.3067484662576687,0.12244897959183675,0.0075674356157695594,0.1325301204819277,0.2191780821917808,0.2,0.6973684210526316,0.3026315789473684,0.8780487804878049,0.5555555555555554,0.07893216225586502,0.13103962643491796,0.0,0.4705882352941176,0.29411764705882354,34.2978794,-83.8240663,94,4.04,2
195,Santa Clarita,CA,91350,West,0.26436781609195403,1.0,0.1564625850340136,0.004271939460515074,0.7108433734939759,0.3835616438356164,0.4,0.5526315789473685,0.4473684210526316,0.28048780487804875,0.33333333333333326,0.20836704033283254,0.4750632336727413,0.7647058823529411,0.0,0.8823529411764706,34.3916641,-118.54258600000001,153,4.23,0
196,Santa Barbara,CA,93101,West,0.5632183908045977,0.8098159509202455,0.17687074829931976,0.011866498501430761,0.5662650602409638,0.5068493150684932,0.6,0.5789473684210527,0.4210526315789474,0.4146341463414634,0.4666666666666668,0.46030278516121576,0.4750632336727413,0.6470588235294117,1.0,0.4705882352941176,34.4208305,-119.69819009999999,88,4.31,1
197,Hesperia,CA,92345,West,0.03448275862068964,0.2392638036809816,0.14965986394557823,0.01095786375903549,0.506024096385542,0.0684931506849315,0.4,0.7631578947368421,0.2368421052631579,0.48780487804878053,0.48888888888888893,0.09788512654570669,0.2375316168363707,0.0,0.0,0.5294117647058822,34.4263886,-117.3008784,81,4.18,2
198,Anderson,SC,29621,South,0.2413793103448276,0.25153374233128833,0.11564625850340136,0.005723042705832892,0.25301204819277107,0.2191780821917808,0.4,0.5657894736842105,0.43421052631578944,0.7439024390243903,0.6444444444444444,0.057898994568357794,0.07098385109280758,0.411764705882353,0.8823529411764706,0.0,34.5034394,-82.6501332,86,4.18,2
199,Victorville,CA,92392,West,0.08045977011494251,0.2331288343558282,0.2108843537414966,0.02142750586544069,0.506024096385542,0.0958904109589041,0.4,0.7631578947368421,0.2368421052631579,0.48780487804878053,0.4666666666666668,0.08679070842482377,0.22387962902911984,0.0,0.0,0.411764705882353,34.5362184,-117.29276409999999,84,4.17,2
200,Palmdale,CA,93550,West,0.1264367816091954,1.0,0.3129251700680272,0.005573863867529192,0.7108433734939759,0.12328767123287673,0.4,0.5526315789473685,0.4473684210526316,0.28048780487804875,0.48888888888888893,0.11660695712469665,0.4074842726506258,0.0,0.0,0.6470588235294117,34.5794343,-118.11646129999998,82,4.11,0
201,Lawton,OK,73505,South,0.2413793103448276,0.17177914110429449,0.06802721088435375,0.0031327556043777207,0.38554216867469876,0.1780821917808219,0.0,0.5657894736842105,0.43421052631578944,0.6463414634146342,0.4666666666666668,0.02530914133826418,0.10305467280627789,0.7647058823529411,1.0,0.0,34.6035669,-98.3959291,89,3.84,2
202,Lancaster,CA,93535,West,0.17241379310344826,1.0,0.2857142857142857,0.004543173711976349,0.7108433734939759,0.12328767123287673,0.4,0.5526315789473685,0.4473684210526316,0.28048780487804875,0.5111111111111113,0.09788512654570669,0.4074842726506258,0.0,0.0,0.6470588235294117,34.6867846,-118.1541632,84,4.1,0
203,Huntsville,AL,35810,South,0.13793103448275865,0.21472392638036808,0.14285714285714285,0.009561007364009928,0.3614457831325301,0.49315068493150677,0.2,0.5921052631578948,0.40789473684210537,0.6463414634146342,0.5111111111111113,0.05581879117069224,0.10921590245800628,0.5294117647058822,0.8823529411764706,0.0,34.730368799999994,-86.5861037,93,4.04,2
204,Little Rock,AR,72204,South,0.2413793103448276,0.19631901840490795,0.09523809523809525,0.009615254214302182,0.5421686746987953,0.4657534246575343,0.4,0.5394736842105263,0.4605263157894736,0.45121951219512196,0.6444444444444444,0.061712700797411306,0.13515792204423116,0.1764705882352941,0.8823529411764706,0.0,34.7464809,-92.2895948,106,3.9,1
205,Greenville,SC,29615,South,0.3563218390804598,0.22085889570552147,0.11564625850340136,0.01811844799761314,0.30120481927710835,0.5205479452054793,0.4,0.5657894736842105,0.43421052631578944,0.6951219512195123,0.6888888888888889,0.07893216225586502,0.13583890005836952,0.411764705882353,0.9411764705882353,0.0,34.85261759999999,-82.3940104,109,4.1,2
206,Rock Hill,SC,29732,South,0.20689655172413793,0.22085889570552147,0.07482993197278913,0.008204836106703554,0.34939759036144574,0.2876712328767123,0.4,0.6578947368421053,0.34210526315789475,0.6585365853658537,0.5777777777777777,0.06506413960476136,0.1631428756728711,0.29411764705882354,0.411764705882353,0.29411764705882354,34.9248667,-81.02507840000001,100,3.98,2
207,Spartanburg,SC,29301,South,0.20689655172413793,0.27607361963190186,0.10884353741496598,0.008204836106703554,0.3373493975903614,0.31506849315068497,0.2,0.5394736842105263,0.4605263157894736,0.6707317073170732,0.7111111111111112,0.04345313764012481,0.05324599520072637,0.411764705882353,0.8823529411764706,0.0,34.949567200000004,-81.93204820000001,88,3.99,2
208,Santa Maria,CA,93458,West,0.4367816091954023,0.6687116564417178,0.23129251700680276,0.0029835767660740197,0.5662650602409638,0.0958904109589041,0.6,0.5789473684210527,0.4210526315789474,0.4146341463414634,0.4666666666666668,0.1505836126199006,0.4750632336727413,0.6470588235294117,0.7058823529411764,0.4705882352941176,34.953033700000006,-120.43571909999999,93,4.19,0
209,Chattanooga,TN,37421,South,0.19540229885057472,0.2392638036809816,0.7346938775510204,0.012558145842657012,0.3734939759036144,0.2876712328767123,0.6,0.5526315789473685,0.4473684210526316,0.6097560975609757,0.6444444444444444,0.049809314688547324,0.11534470458525192,0.29411764705882354,0.7647058823529411,0.0,35.0456297,-85.3096801,99,4.11,2
210,Fayetteville,NC,28314,South,0.09195402298850575,0.22085889570552147,0.07482993197278913,0.009140594274244952,0.6024096385542168,0.2465753424657534,0.2,0.855263157894737,0.1447368421052631,0.4146341463414634,0.4444444444444444,0.04195076851958858,0.08191192684350479,0.6470588235294117,0.7058823529411764,0.0,35.0526641,-78.87835849999998,88,3.89,2
211,Albuquerque,NM,87121,West,0.3402298850574713,0.15337423312883436,0.163265306122449,0.014931445542943164,0.5542168674698795,0.3972602739726028,1.0,0.5921052631578948,0.40789473684210537,0.40243902439024387,0.48888888888888893,0.07153588350860973,0.10305467280627789,1.0,0.7058823529411764,0.0,35.0843859,-106.65042199999999,105,4.12,2
212,Memphis,TN,38109,South,0.26436781609195403,0.20858895705521474,0.08843537414965986,0.025604513337944317,0.6385542168674698,0.2602739726027397,0.2,0.7763157894736842,0.22368421052631576,0.3780487804878049,0.7111111111111112,0.04421587888593551,0.05869381931383355,0.411764705882353,0.5294117647058822,0.0,35.1495343,-90.0489801,134,4.0,2
213,Cleveland,TN,37312,South,0.18390804597701146,0.22085889570552147,0.11564625850340136,0.004936463376595196,0.14457831325301201,0.273972602739726,0.2,0.5657894736842105,0.43421052631578944,0.8536585365853658,0.48888888888888893,0.049809314688547324,0.0757506971917764,0.29411764705882354,0.9411764705882353,0.0,35.1595182,-84.8766115,76,4.13,2
214,Amarillo,TX,79109,South,0.29885057471264365,0.09815950920245399,0.217687074829932,0.004651667412560859,0.20481927710843373,0.2328767123287671,0.2,0.1842105263157895,0.8157894736842104,0.8048780487804879,0.3999999999999999,0.04287530336299549,0.06894091705039229,1.0,0.8823529411764706,0.23529411764705882,35.2219971,-101.8312969,75,4.07,2
215,Norman,OK,73072,South,0.20689655172413793,0.20858895705521474,0.1564625850340136,0.007486065340331177,0.32530120481927705,0.5205479452054793,0.0,0.736842105263158,0.2631578947368421,0.6951219512195123,0.6222222222222222,0.06506413960476136,0.03819962384071596,0.7058823529411764,0.5294117647058822,0.6470588235294117,35.222566799999996,-97.4394777,123,3.89,2
216,Charlotte,NC,28269,South,0.16551724137931031,0.24539877300613494,0.11564625850340136,0.026418216092328143,0.6144578313253011,0.4794520547945205,0.2,0.6842105263157895,0.31578947368421056,0.39024390243902435,0.5111111111111113,0.08817751068993412,0.12763473636422595,0.29411764705882354,0.411764705882353,0.29411764705882354,35.2270869,-80.8431267,128,4.11,1
217,Gastonia,NC,28054,South,0.13793103448275865,0.2331288343558282,0.09523809523809525,0.012449652142072502,0.32530120481927705,0.2328767123287671,0.2,0.5657894736842105,0.43421052631578944,0.6829268292682927,0.3999999999999999,0.05813012827920953,0.12763473636422595,0.29411764705882354,0.23529411764705882,0.0,35.262082,-81.18730049999998,108,3.96,2
218,Bakersfield,CA,93307,West,0.2793103448275862,0.3619631901840491,0.054421768707482984,0.0071605842385776474,0.3373493975903614,0.2191780821917808,0.6,0.736842105263158,0.2631578947368421,0.6463414634146342,0.4222222222222223,0.08817751068993412,0.1958946754004799,0.0,0.411764705882353,0.23529411764705882,35.3732921,-119.0187125,92,4.04,2
219,Fort Smith,AR,72903,South,0.26436781609195403,0.25766871165644173,0.18367346938775514,0.014795828417212527,0.2409638554216867,0.1780821917808219,0.6,0.4078947368421053,0.5921052631578947,0.7439024390243903,0.3999999999999999,0.03732809430255402,0.025942019586224774,0.6470588235294117,1.0,0.0,35.385924200000005,-94.3985475,91,4.25,2
220,Concord,NC,28027,South,0.08045977011494251,0.24539877300613494,0.061224489795918366,0.007757299591792452,0.34939759036144574,0.3287671232876712,0.2,0.6315789473684211,0.3684210526315789,0.6585365853658537,0.2666666666666666,0.0770830925690512,0.12763473636422595,0.29411764705882354,0.23529411764705882,0.5294117647058822,35.4087517,-80.579511,102,3.98,2
221,Oklahoma City,OK,73160,South,0.24827586206896554,0.20858895705521474,0.14285714285714285,0.021834357242632604,0.38554216867469876,0.3287671232876712,0.0,0.44736842105263164,0.5526315789473686,0.6341463414634146,0.4222222222222223,0.06391216918987634,0.06689798300797711,0.6470588235294117,0.7058823529411764,0.0,35.4675602,-97.5164276,120,4.13,2
222,Asheville,NC,28806,South,0.28735632183908044,0.25153374233128833,0.12925170068027209,0.011961430489442208,0.5542168674698795,0.547945205479452,0.2,0.5921052631578948,0.40789473684210537,0.45121951219512196,0.6444444444444444,0.12377210216110021,0.15425773396458908,0.9411764705882353,0.7058823529411764,0.6470588235294117,35.5950581,-82.5514869,91,4.16,1
223,Greenville,NC,27858,South,0.2413793103448276,0.2883435582822086,0.29931972789115646,0.005994276957294167,0.5180722891566265,0.3972602739726028,0.2,0.8947368421052633,0.10526315789473684,0.48780487804878053,0.7555555555555558,0.0437998382064024,0.13583890005836952,0.8823529411764706,0.9411764705882353,0.23529411764705882,35.612660999999996,-77.3663538,82,4.19,2
224,Edmond,OK,73013,South,0.17241379310344826,0.20858895705521474,0.20408163265306123,0.010496765531551325,0.38554216867469876,0.6164383561643836,0.0,0.44736842105263164,0.5526315789473686,0.6341463414634146,0.288888888888889,0.09280018490696869,0.12559180232181077,0.7058823529411764,0.7058823529411764,0.7058823529411764,35.6528323,-97.47809540000002,116,4.05,1
225,Santa Fe,NM,87507,West,0.29885057471264365,0.1656441717791411,0.24489795918367346,0.0026580956643204906,0.7710843373493974,0.5205479452054793,0.8,0.6710526315789475,0.3289473684210526,0.1951219512195122,0.5999999999999999,0.15936669363226627,0.1488099098514819,1.0,0.9411764705882353,0.29411764705882354,35.686975200000006,-105.937799,79,4.08,1
226,Raleigh,NC,27610,South,0.2160919540229885,0.2331288343558282,0.13605442176870747,0.022322578895262898,0.5421686746987953,0.5753424657534245,0.2,0.736842105263158,0.2631578947368421,0.4634146341463415,0.5111111111111113,0.09418698717207905,0.1064595628769699,0.23529411764705882,0.7058823529411764,0.4705882352941176,35.7795897,-78.6381787,132,4.14,1
227,Cary,NC,27513,South,0.17241379310344826,0.22699386503067487,0.17006802721088438,0.03005275506190922,0.5421686746987953,0.7808219178082192,0.2,0.736842105263158,0.2631578947368421,0.4634146341463415,0.11111111111111105,0.14419045417774182,0.1215059342369803,0.23529411764705882,0.5294117647058822,0.8823529411764706,35.791540000000005,-78.78111690000001,126,4.15,1
228,Murfreesboro,TN,37130,South,0.14942528735632185,0.21472392638036808,0.14285714285714285,0.008855798310210614,0.32530120481927705,0.4246575342465753,0.4,0.8157894736842106,0.18421052631578944,0.6829268292682927,0.5111111111111113,0.09002658037674795,0.11262079252869828,0.23529411764705882,0.0,0.411764705882353,35.8456213,-86.39027,88,4.01,2
229,Chapel Hill,NC,27516,South,0.27586206896551724,0.22699386503067487,0.1020408163265306,0.00760812075348875,0.7228915662650601,0.9726027397260273,0.2,0.9210526315789473,0.0789473684210526,0.2682926829268293,0.6888888888888889,0.1663007049578181,0.0934885530838575,0.411764705882353,0.7647058823529411,0.7058823529411764,35.913199600000006,-79.05584449999999,107,4.08,1
230,Franklin,TN,37064,South,0.13793103448275865,0.18404907975460122,0.14285714285714285,0.004746599400572304,0.19277108433734935,0.7534246575342465,0.2,0.5921052631578948,0.40789473684210537,0.8170731707317074,0.15555555555555556,0.1967641280480758,0.12218691225111877,0.23529411764705882,0.1764705882352941,0.7647058823529411,35.9250637,-86.86888990000001,132,4.03,1
231,High Point,NC,27265,South,0.16091954022988506,0.31288343558282206,0.06802721088435375,0.014565279303470444,0.5783132530120481,0.31506849315068497,0.2,0.6973684210526316,0.3026315789473684,0.42682926829268286,0.4222222222222223,0.06036657806541084,0.22524158505739666,0.5294117647058822,0.4705882352941176,0.23529411764705882,35.955692299999995,-80.0053176,121,4.06,2
232,Knoxville,TN,37918,South,0.18390804597701146,0.25153374233128833,0.12244897959183675,0.013507465722771473,0.2891566265060241,0.3424657534246575,0.4,0.5,0.5,0.7073170731707318,0.6444444444444444,0.07003351438807351,0.06825993903625394,0.29411764705882354,0.7058823529411764,0.0,35.96063839999999,-83.9207392,117,4.08,2
233,Durham,NC,27713,South,0.20804597701149427,0.22699386503067487,0.061224489795918366,0.014795828417212527,0.7951807228915662,0.5890410958904109,0.2,0.8026315789473685,0.19736842105263158,0.20731707317073172,0.5333333333333332,0.09071998150930313,0.0934885530838575,0.411764705882353,0.5294117647058822,0.411764705882353,35.99403289999999,-78.898619,122,4.0,1
234,Henderson,NV,89052,West,0.20229885057471267,0.2392638036809816,0.23129251700680276,0.020464624272753165,0.5542168674698795,0.3424657534246575,0.4,0.8421052631578948,0.15789473684210525,0.43902439024390244,0.3999999999999999,0.10897954466658963,0.20818470717945392,0.6470588235294117,0.4705882352941176,0.7058823529411764,36.0395247,-114.9817213,134,4.17,2
235,Broken Arrow,OK,74012,South,0.09195402298850575,0.21472392638036808,0.13605442176870747,0.010144161004651668,0.3132530120481927,0.3561643835616438,0.0,0.5657894736842105,0.43421052631578944,0.7073170731707318,0.24444444444444446,0.06367733733965099,0.055969907257279905,0.7058823529411764,0.7058823529411764,0.7058823529411764,36.060949,-95.7974526,113,4.08,2
236,Greensboro,NC,27406,South,0.20689655172413793,0.20245398773006135,0.04761904761904763,0.017575979494690593,0.5783132530120481,0.41095890410958896,0.2,0.6973684210526316,0.3026315789473684,0.42682926829268286,0.5777777777777777,0.05766786085750606,0.22524158505739666,0.5294117647058822,0.7647058823529411,0.29411764705882354,36.072635399999996,-79.79197540000001,106,3.94,2
237,Winston Salem,NC,27107,South,0.13563218390804596,0.31288343558282206,0.17687074829931976,0.01669446817744145,0.5180722891566265,0.3972602739726028,0.2,0.6578947368421053,0.34210526315789475,0.48780487804878053,0.5777777777777777,0.044262105628105855,0.1283157143783643,0.411764705882353,0.7058823529411764,0.0,36.09985959999999,-80.24421600000001,104,4.06,2
238,Tulsa,OK,74133,South,0.29885057471264365,0.17791411042944782,0.1564625850340136,0.021251203601990863,0.3132530120481927,0.3424657534246575,0.0,0.5657894736842105,0.43421052631578944,0.7073170731707318,0.5111111111111113,0.05743672714665434,0.055969907257279905,0.411764705882353,0.8823529411764706,0.0,36.1539816,-95.992775,124,3.98,2
239,Nashville,TN,37211,South,0.18965517241379312,0.18404907975460122,0.14285714285714285,0.01989503234468449,0.5903614457831323,0.4246575342465753,0.4,0.6315789473684211,0.3684210526315789,0.4146341463414634,0.5999999999999999,0.08679070842482377,0.11262079252869828,0.23529411764705882,0.4705882352941176,0.23529411764705882,36.1626638,-86.78160159999999,106,4.07,2
240,Las Vegas,NV,89110,West,0.3287356321839081,0.26380368098159507,0.19727891156462585,0.008977853723368187,0.5542168674698795,0.2328767123287671,0.4,0.8421052631578948,0.15789473684210525,0.43902439024390244,0.5111111111111113,0.08447937131630649,0.20818470717945392,0.6470588235294117,0.5294117647058822,0.411764705882353,36.169941200000004,-115.13982959999998,119,4.25,2
241,North Las Vegas,NV,89031,West,0.23218390804597702,0.2331288343558282,0.23129251700680276,0.052836432184656286,0.5542168674698795,0.16438356164383564,0.4,0.8421052631578948,0.15789473684210525,0.43902439024390244,0.4444444444444444,0.07731422627990293,0.20818470717945392,0.6470588235294117,0.23529411764705882,0.4705882352941176,36.1988592,-115.1175013,148,4.16,2
242,Johnson City,TN,37601,South,0.16091954022988506,0.2883435582822086,0.07482993197278913,0.01048320381897826,0.2409638554216867,0.4246575342465753,0.4,0.605263157894737,0.3947368421052632,0.7560975609756099,0.5999999999999999,0.05304518664047151,0.1488099098514819,0.29411764705882354,0.7647058823529411,0.29411764705882354,36.3134397,-82.35347270000001,94,4.18,2
243,Visalia,CA,93291,West,0.29885057471264365,0.18404907975460122,0.18367346938775514,0.008055657268399853,0.3614457831325301,0.3013698630136986,0.4,0.6315789473684211,0.3684210526315789,0.6341463414634146,0.3999999999999999,0.08632844100312032,0.4750632336727413,0.0,0.7058823529411764,0.411764705882353,36.330228399999996,-119.2920585,88,4.19,0
244,Clarksville,TN,37042,South,0.06896551724137931,0.1595092024539877,0.08843537414965986,0.007526750478050369,0.4096385542168674,0.2465753424657534,0.4,0.7236842105263159,0.27631578947368424,0.5853658536585367,0.33333333333333326,0.06621980815902,0.11193981451455992,0.411764705882353,0.5294117647058822,0.4705882352941176,36.5297706,-87.3594528,89,3.95,2
245,Salinas,CA,93905,West,0.49425287356321845,0.6809815950920246,0.19727891156462585,0.007852231579803899,0.6746987951807228,0.0958904109589041,0.4,0.7236842105263159,0.27631578947368424,0.3170731707317073,0.48888888888888893,0.18987634346469434,0.07915558726246841,1.0,0.411764705882353,0.411764705882353,36.6777372,-121.6555013,90,4.06,2
246,Fresno,CA,93722,West,0.36896551724137927,0.19631901840490795,0.23129251700680276,0.019406810692054195,0.4578313253012048,0.1917808219178082,0.4,0.6842105263157895,0.31578947368421056,0.5487804878048781,0.5777777777777777,0.09187565006356177,0.2177508269018743,0.0,0.5294117647058822,0.23529411764705882,36.737798100000006,-119.78712469999999,111,4.15,2
247,Chesapeake,VA,23322,South,0.12413793103448276,0.3067484662576687,0.2653061224489796,0.008611687483895467,0.48192771084337344,0.3287671232876712,0.2,0.9342105263157895,0.06578947368421051,0.524390243902439,0.288888888888889,0.10666820755807235,0.14196770218561516,0.5294117647058822,0.23529411764705882,0.5294117647058822,36.7682088,-76.2874927,136,3.99,2
248,Clovis,CA,93611,West,0.27586206896551724,0.19631901840490795,0.23129251700680276,0.007364009927173604,0.4578313253012048,0.3013698630136986,0.4,0.6842105263157895,0.31578947368421056,0.5487804878048781,0.4666666666666668,0.12931931122154167,0.4750632336727413,0.0,0.8823529411764706,0.4705882352941176,36.8252277,-119.70291940000001,106,4.18,0
249,Portsmouth,VA,23703,South,0.28735632183908044,0.2883435582822086,0.20408163265306123,0.0382847145937589,0.7108433734939759,0.1917808219178082,0.2,0.8026315789473685,0.19736842105263158,0.2926829268292683,0.6666666666666667,0.05071073616086906,0.14196770218561516,0.5294117647058822,0.411764705882353,0.0,36.835425799999996,-76.29827420000001,132,4.03,0
250,Norfolk,VA,23503,South,0.38505747126436785,0.2883435582822086,0.1564625850340136,0.060661540339314056,0.7349397590361444,0.2876712328767123,0.2,0.8421052631578948,0.15789473684210525,0.25609756097560976,0.6444444444444444,0.07893216225586502,0.1378818341007847,0.7647058823529411,0.6470588235294117,0.23529411764705882,36.8507689,-76.28587259999998,133,4.05,0
251,Virginia Beach,VA,23464,South,0.24252873563218394,0.3067484662576687,0.18367346938775514,0.02469587859554905,0.4578313253012048,0.3835616438356164,0.2,0.8684210526315791,0.13157894736842107,0.5487804878048781,0.37777777777777777,0.10782387611233099,0.1378818341007847,0.7647058823529411,0.5294117647058822,0.6470588235294117,36.8529263,-75.97798499999998,116,4.07,2
252,Madera,CA,93638,West,0.3448275862068966,0.19631901840490795,0.25170068027210885,0.0021563122991171326,0.34939759036144574,0.0410958904109589,0.4,0.8947368421052633,0.10526315789473684,0.6463414634146342,0.5555555555555554,0.08929157517623947,0.4750632336727413,0.0,0.6470588235294117,0.411764705882353,36.961335600000005,-120.0607176,54,4.09,0
253,Bowling Green,KY,42101,South,0.25287356321839083,0.19631901840490795,0.04081632653061225,0.003214125879816103,0.3373493975903614,0.2876712328767123,0.4,0.6315789473684211,0.3684210526315789,0.6585365853658537,0.7555555555555558,0.07523402288223738,0.08123094882936632,0.7058823529411764,1.0,0.23529411764705882,36.9685219,-86.48080429999999,87,4.13,2
254,Santa Cruz,CA,95060,West,0.5632183908045977,0.7791411042944786,0.04761904761904763,0.015216241506977502,0.7831325301204819,0.6438356164383561,0.8,0.8684210526315791,0.13157894736842107,0.18292682926829268,0.7999999999999998,0.38865133479718017,0.4750632336727413,1.0,0.6470588235294117,0.0,36.9741171,-122.0307963,86,4.22,1
255,Hampton,VA,23666,South,0.2298850574712644,0.2883435582822086,0.19047619047619047,0.03653525367183368,0.7469879518072289,0.2191780821917808,0.2,0.8421052631578948,0.15789473684210525,0.25609756097560976,0.5555555555555554,0.06346931699988444,0.1378818341007847,0.5294117647058822,0.5294117647058822,0.4705882352941176,37.0298687,-76.34522179999998,132,4.01,0
256,Newport News,VA,23608,South,0.25287356321839083,0.27607361963190186,0.22448979591836737,0.04189213013819385,0.6506024096385541,0.273972602739726,0.2,0.8684210526315791,0.13157894736842107,0.34146341463414637,0.5555555555555554,0.07259909857852768,0.1378818341007847,0.7647058823529411,0.4705882352941176,0.4705882352941176,37.087082099999996,-76.4730122,110,3.93,2
257,Springfield,MO,65807,Midwest,0.28735632183908044,0.2392638036809816,0.1564625850340136,0.012829380094118286,0.32530120481927705,0.273972602739726,0.4,0.5789473684210527,0.4210526315789474,0.6707317073170732,0.6666666666666667,0.045186640471512766,0.08599779492833515,0.6470588235294117,0.9411764705882353,0.0,37.20895720000001,-93.2922989,94,4.17,2
258,Roanoke,VA,24018,South,0.3563218390804598,0.3558282208588957,0.14965986394557823,0.015270488357269756,0.5903614457831323,0.273972602739726,0.6,0.6578947368421053,0.34210526315789475,0.39024390243902435,0.5999999999999999,0.05720559343580261,0.09144561904144233,0.7058823529411764,0.9411764705882353,0.23529411764705882,37.270970399999996,-79.9414266,84,4.13,2
259,Merced,CA,95340,West,0.33333333333333337,0.22085889570552147,0.23129251700680276,0.005370438178933236,0.506024096385542,0.136986301369863,0.4,0.6578947368421053,0.34210526315789475,0.48780487804878053,0.5555555555555554,0.08854547555761008,0.4750632336727413,0.0,0.6470588235294117,0.411764705882353,37.3021632,-120.48296770000002,69,4.11,0
260,San Jose,CA,95123,West,0.4379310344827586,0.7791411042944786,0.217687074829932,0.048632301287006525,0.7228915662650601,0.4520547945205479,0.6,0.75,0.24999999999999994,0.2682926829268293,0.33333333333333326,0.3551369467236796,0.655295414748038,0.7647058823529411,0.23529411764705882,0.5294117647058822,37.338208200000004,-121.88632859999998,116,4.29,0
261,Santa Clara,CA,95051,West,0.5287356321839081,0.6748466257668713,0.272108843537415,0.08527604865942472,0.7228915662650601,0.6712328767123288,0.4,0.75,0.24999999999999994,0.2682926829268293,0.288888888888889,0.4256327285334566,0.4750632336727413,0.7647058823529411,0.5294117647058822,0.6470588235294117,37.354107899999995,-121.9552356,124,4.27,1
262,Sunnyvale,CA,94087,West,0.5172413793103449,0.6748466257668713,0.23129251700680276,0.09246375632314849,0.7228915662650601,0.7397260273972601,0.6,0.75,0.24999999999999994,0.2682926829268293,0.19999999999999996,0.4815670865595747,0.44915364161099935,0.7647058823529411,0.411764705882353,0.7647058823529411,37.368829999999996,-122.03634960000001,136,4.25,1
263,Lynchburg,VA,24502,South,0.19540229885057472,0.2822085889570552,0.08843537414965986,0.009371143387987035,0.4096385542168674,0.3698630136986301,0.2,0.6315789473684211,0.3684210526315789,0.5975609756097562,0.7111111111111112,0.05859239570091298,0.08735975095661197,0.7647058823529411,0.9411764705882353,0.5294117647058822,37.4137536,-79.14224639999998,80,4.06,2
264,Palo Alto,CA,94303,West,0.5057471264367817,0.8159509202453988,0.22448979591836737,0.059495233058030575,0.7228915662650601,1.0,0.4,0.75,0.24999999999999994,0.2682926829268293,0.19999999999999996,1.0,0.4969193851741357,0.5294117647058822,0.6470588235294117,0.7058823529411764,37.441883399999995,-122.14301950000001,134,4.19,1
265,Redwood City,CA,94061,West,0.5172413793103449,0.8159509202453988,0.23129251700680276,0.01662665961457613,0.7349397590361444,0.4657534246575343,0.4,0.7631578947368421,0.2368421052631579,0.25609756097560976,0.3999999999999999,0.6204784467814631,0.655295414748038,0.5294117647058822,0.29411764705882354,0.6470588235294117,37.484795500000004,-122.228141,138,4.15,0
266,Richmond,VA,23223,South,0.4505747126436782,0.22699386503067487,0.20408163265306123,0.031137692067754318,0.8072289156626504,0.41095890410958896,0.4,0.6973684210526316,0.3026315789473684,0.18292682926829268,0.8444444444444443,0.08482607188258408,0.11874959465594392,0.5294117647058822,0.6470588235294117,0.23529411764705882,37.540724600000004,-77.4360481,127,4.09,1
267,Fremont,CA,94536,West,0.39655172413793105,0.8159509202453988,0.19047619047619047,0.04242103692854334,0.8192771084337349,0.6164383561643836,0.6,0.855263157894737,0.1447368421052631,0.15853658536585363,0.15555555555555556,0.37478331214607646,0.4750632336727413,0.5294117647058822,0.0,0.7058823529411764,37.5485396,-121.988583,170,4.13,1
268,San Mateo,CA,94403,West,0.6091954022988506,0.8159509202453988,0.24489795918367346,0.09940735316055713,0.7349397590361444,0.5342465753424657,0.4,0.7631578947368421,0.2368421052631579,0.25609756097560976,0.3999999999999999,0.4917369698370507,0.44163045593099415,0.5294117647058822,0.23529411764705882,0.7058823529411764,37.562991700000005,-122.32552539999999,155,4.17,1
269,Modesto,CA,95355,West,0.3908045977011495,0.32515337423312884,0.1564625850340136,0.01589432713563069,0.46987951807228906,0.16438356164383564,0.4,0.736842105263158,0.2631578947368421,0.5121951219512195,0.4444444444444444,0.10389460302785161,0.4750632336727413,0.0,0.23529411764705882,0.0,37.639259499999994,-120.9970014,101,4.18,0
270,Hayward,CA,94544,West,0.47126436781609193,0.8159509202453988,0.19727891156462585,0.052402457382318246,0.8313253012048192,0.3013698630136986,0.6,0.855263157894737,0.1447368421052631,0.15853658536585363,0.4444444444444444,0.23679648676759507,0.4498346196251378,0.5294117647058822,0.0,0.4705882352941176,37.6687665,-122.08099640000002,156,4.17,0
271,Wichita,KS,67212,Midwest,0.25172413793103443,0.1595092024539877,0.163265306122449,0.02097996935052959,0.34939759036144574,0.31506849315068497,0.4,0.6973684210526316,0.3026315789473684,0.6463414634146342,0.3999999999999999,0.043337570784698944,0.09280757506971915,0.7058823529411764,0.9411764705882353,0.0,37.68717609999999,-97.330053,97,3.93,2
272,Daly City,CA,94015,West,0.5862068965517242,0.6687116564417178,0.24489795918367346,0.12110609327745908,0.7349397590361444,0.3424657534246575,0.4,0.7631578947368421,0.2368421052631579,0.25609756097560976,0.3555555555555556,0.3724719750375592,0.5037615928400027,0.5294117647058822,0.0,0.7058823529411764,37.687924100000004,-122.47020790000002,134,4.24,0
273,San Leandro,CA,94577,West,0.574712643678161,0.8159509202453988,0.1564625850340136,0.09028032059888523,0.8313253012048192,0.3013698630136986,0.6,0.855263157894737,0.1447368421052631,0.15853658536585363,0.4444444444444444,0.2661504680457645,0.44163045593099415,0.5294117647058822,0.0,0.23529411764705882,37.7257663,-122.1568554,168,4.23,0
274,Tracy,CA,95376,West,0.33333333333333337,0.6012269938650308,0.20408163265306123,0.004597420562268604,0.5180722891566265,0.1917808219178082,0.4,0.8157894736842106,0.18421052631578944,0.475609756097561,0.19999999999999996,0.1963480873685427,0.32352941176470584,0.7647058823529411,0.0,0.6470588235294117,37.739581799999996,-121.4260018,93,4.09,0
275,San Francisco,CA,94112,West,0.849425287356322,0.8159509202453988,0.2108843537414966,0.22068974870146602,0.8795180722891565,0.6712328767123288,0.6,0.7631578947368421,0.2368421052631579,0.08536585365853659,0.6222222222222222,0.543279787356986,0.655295414748038,0.5294117647058822,0.0,0.0,37.7749295,-122.4194155,119,4.29,1
276,Oakland,CA,94601,West,0.6724137931034483,0.8159509202453988,0.17687074829931976,0.07544380704395352,0.8313253012048192,0.4657534246575343,0.6,0.855263157894737,0.1447368421052631,0.15853658536585363,0.6222222222222222,0.30775453599907543,0.4498346196251378,0.5294117647058822,0.0,0.0,37.804351399999994,-122.27116389999999,144,4.27,0
277,Berkeley,CA,94704,West,0.7931034482758621,0.8159509202453988,0.18367346938775514,0.10401833543539879,0.8313253012048192,0.8904109589041094,0.6,0.855263157894737,0.1447368421052631,0.15853658536585363,0.7333333333333334,0.49728417889749216,0.4498346196251378,0.5294117647058822,0.29411764705882354,0.23529411764705882,37.871522600000006,-122.27304199999999,154,4.24,1
278,Richmond,CA,94804,West,0.5057471264367817,0.8159509202453988,0.19047619047619047,0.056606588279968,0.6746987951807228,0.273972602739726,0.4,0.8026315789473685,0.19736842105263158,0.3170731707317073,0.5999999999999999,0.17739512307870103,0.11874959465594392,0.5294117647058822,0.0,0.1764705882352941,37.9357576,-122.3477486,169,4.15,2
279,Stockton,CA,95206,West,0.3448275862068966,0.32515337423312884,0.18367346938775514,0.013154861195871816,0.5301204819277108,0.1780821917808219,0.4,0.8157894736842106,0.18421052631578944,0.475609756097561,0.48888888888888893,0.10158326591933434,0.2484596925870679,0.0,0.1764705882352941,0.0,37.9577016,-121.29077959999998,110,4.12,2
280,Evansville,IN,47714,Midwest,0.367816091954023,0.25153374233128833,0.06802721088435375,0.010252654705236178,0.4096385542168674,0.1780821917808219,0.4,0.6447368421052632,0.3552631578947369,0.5975609756097562,0.6222222222222222,0.039639431411071305,0.10169271677800118,0.1764705882352941,0.8823529411764706,0.1764705882352941,37.9715592,-87.5710898,89,4.23,2
281,Concord,CA,94521,West,0.3793103448275862,0.8159509202453988,0.217687074829932,0.05078861358612366,0.6746987951807228,0.3561643835616438,0.4,0.8026315789473685,0.19736842105263158,0.3170731707317073,0.37777777777777777,0.2372587541892985,0.12763473636422595,0.5294117647058822,0.0,0.4705882352941176,37.9779776,-122.0310733,137,4.19,2
282,Antioch,CA,94509,West,0.29885057471264365,0.8159509202453988,0.2108843537414966,0.050639434747819956,0.6746987951807228,0.2465753424657534,0.4,0.8026315789473685,0.19736842105263158,0.3170731707317073,0.3555555555555556,0.15751762394545246,0.33309553148712623,0.5294117647058822,0.0,0.23529411764705882,38.0049214,-121.80578899999999,116,4.03,0
283,Charlottesville,VA,22903,South,0.5402298850574713,0.294478527607362,0.19047619047619047,0.006075647232732549,0.7951807228915662,0.6027397260273972,0.4,0.5789473684210527,0.4210526315789474,0.1951219512195122,0.8222222222222222,0.1186871605223622,0.1754004799273623,0.8823529411764706,0.9411764705882353,0.4705882352941176,38.029305900000004,-78.47667810000002,92,4.12,1
284,Lexington,KY,40515,South,0.27471264367816095,0.20858895705521474,0.04081632653061225,0.013141299483298752,0.46987951807228906,0.5068493150684932,0.6,0.6973684210526316,0.3026315789473684,0.5121951219512195,0.5333333333333332,0.06506413960476136,0.08395486088591997,0.7647058823529411,0.7647058823529411,0.29411764705882354,38.040583700000006,-84.50371640000002,97,4.04,2
285,Vallejo,CA,94591,West,0.3563218390804598,0.460122699386503,0.2585034013605442,0.037131969025048485,0.6385542168674698,0.2465753424657534,0.4,0.8289473684210527,0.17105263157894735,0.35365853658536583,0.5777777777777777,0.14850340922223507,0.12967767040664113,0.29411764705882354,0.0,0.0,38.1040864,-122.25663670000002,122,4.1,2
